[{"id": "da647a1c-8536-41a4-8230-eddf92e46e1d", "url": "https://www.vriendenloterij.nl/vipkaart/aanbod/kans-op-zomerlicht-op-pampus", "name": "Kans op Pampus Zomerlicht arrangement", "description": "Maak kans op een unieke culinaire belevenis voor 2 personen. Geniet van fine dining met uitzicht op het IJmeer en de skyline van Amsterdam. Inclusief vaartocht van IJburg naar forteiland Pampus en retour.", "label": "Winactie", "offers": ["Kans op"], "offer_enums": ["CHANCE"], "categories": ["Eten en Drinken", "Musea", "Festivals en Evenementen"], "types": ["Openlucht", "Historisch", "Buiten"], "topic": "event", "location": "Amsterdam", "provider": "Forteiland Pampus", "start_date": "2026-08-08 15:45", "end_date": "2026-08-08 21:00", "start_ts": 1786203900, "end_ts": 1786222800, "last_updated": "2026-07-06T10:59:27.055Z", "highlight_event": false, "show_on_website": true, "show_on_app": true, "retail_id": "", "image_url": "", "mobile_image_url": "", "locations": [{"name": "Forteiland Pampus", "city": "Amsterdam", "province": "Noord-Holland", "address": "Bert Haanstrakade 1051 (Opstapplaats veerdienst) 1087 HM Amsterdam", "lat": 52.354693, "lng": 5.006038, "website": ""}], "lat": 52.354693, "lng": 5.006038, "address": "Bert Haanstrakade 1051 (Opstapplaats veerdienst) 1087 HM Amsterdam", "is_winactie": true}, {"id": "e9f2512c-d6ca-4096-97c6-8e40fca79e5a", "url": "https://www.vriendenloterij.nl/vipkaart/aanbod/kans-op-exclusieve-avond-filmmuziek-in-het-concertgebouw", "name": "Een magische avond vol filmmuziek in Het Concertgebouw", "description": "Een exclusieve avond met filmmuziek van Lord of the Rings tot Inception in Het Concertgebouw. Wij verloten 5x een 2-persoonsarrangement voor deze muzikale avond. Geniet van een verzorgde avond incl. een heerlijk diner in restaurant LIER! Een avond vol sfeer, smaak en muziek.", "label": "Winactie", "offers": ["Kans op"], "offer_enums": ["CHANCE"], "categories": ["Eten en Drinken", "Voorstellingen", "Evenementen", "Theater, Musicals en Concerten"], "types": ["Concerten", "Binnen"], "topic": "event", "location": "Amsterdam", "provider": "Het Concertgebouw", "start_date": "2026-08-15 15:00", "end_date": "2026-08-15 19:30", "start_ts": 1786806000, "end_ts": 1786822200, "last_updated": "2026-07-07T07:30:00.334Z", "highlight_event": false, "show_on_website": true, "show_on_app": true, "retail_id": "", "image_url": "", "mobile_image_url": "", "locations": [{"name": "Het Concertgebouw", "city": "Amsterdam", "province": "Noord-Holland", "address": "Concertgebouwplein 10 1071 LN Amsterdam", "lat": 52.355894, "lng": 4.878337, "website": "https://www.concertgebouw.nl/"}], "lat": 52.355894, "lng": 4.878337, "address": "Concertgebouwplein 10 1071 LN Amsterdam", "is_winactie": true}, {"id": "d1e94def-ca4c-4e18-9d84-7ad61c1f75a4", "url": "https://www.vriendenloterij.nl/vipkaart/aanbod/kans-op-weekend-weg-zuiderzeemuseum", "name": "VIP-weekend weg in het Zuiderzeemuseum", "description": "Wij verloten 11x4 tickets voor een exclusief weekend weg in het sfeervolle Zuiderzeemuseum. Inclusief 2 overnachtingen op een Oudhollands zeilschip. Gezellig samen met 3 vrienden of familieleden. Maak kans op dit geheel verzorgde weekend vol leuke, exclusieve activiteiten.", "label": "Kans Op", "offers": ["Kans op"], "offer_enums": ["CHANCE"], "categories": ["Evenementen", "Overnachten", "Eten en Drinken"], "types": ["Openlucht", "Avontuurlijk", "Buiten"], "topic": "event", "location": "Enkhuizen", "provider": "Zuiderzeemuseum", "start_date": "2026-08-21 15:30", "end_date": "2026-08-23 14:00", "start_ts": 1787326200, "end_ts": 1787493600, "last_updated": "2026-07-07T12:32:29.838Z", "highlight_event": true, "show_on_website": true, "show_on_app": true, "retail_id": "", "image_url": "", "mobile_image_url": "", "locations": [{"name": "Zuiderzeemuseum", "city": "Enkhuizen", "province": "Noord-Holland", "address": "Wierdijk 12-22 1601 MB Enkhuizen", "lat": 52.6942, "lng": 5.279751, "website": "https://www.zuiderzeemuseum.nl"}], "lat": 52.6942, "lng": 5.279751, "address": "Wierdijk 12-22 1601 MB Enkhuizen", "is_winactie": true}, {"id": "73385b75-ac46-43c5-b7df-ab99be40bd64", "url": "https://www.vriendenloterij.nl/vipkaart/aanbod/museum-prinsenhof-delft", "name": "Museum Prinsenhof Delft", "description": "Vijf eeuwen Nederlandse geschiedenis. Het verhaal van Willem van Oranje. In de historische binnenstad van Delft.", "label": "Gesloten", "offers": ["Gratis"], "offer_enums": ["FREE"], "categories": ["Musea"], "types": ["Kunst"], "topic": "event", "location": "Delft", "provider": "Museum Prinsenhof Delft", "start_date": "2024-01-01 00:00", "end_date": "2024-12-31 18:09", "start_ts": 1704067200, "end_ts": 1735668540, "last_updated": "2026-07-06T11:04:12.108Z", "highlight_event": false, "show_on_website": true, "show_on_app": true, "retail_id": "", "image_url": "", "mobile_image_url": "", "locations": [{"name": "Museum Prinsenhof Delft", "city": "Delft", "province": "Zuid-Holland", "address": "Sint Agathaplein 1 2611 HR Delft", "lat": 52.012239, "lng": 4.354698, "website": "https://prinsenhof-delft.nl/"}], "lat": 52.012239, "lng": 4.354698, "address": "Sint Agathaplein 1 2611 HR Delft", "is_winactie": false}, {"id": "6a4d83e8-711a-49e1-8166-b44070065506", "url": "https://www.vriendenloterij.nl/vipkaart/aanbod/wellnessmaand", "name": "Wellnessmaand", "description": "Extra voordelig naar wellnessresorts. Ontvang 2 toegangskaarten cadeau. Bestellen is mogelijk van 1 t/m 28 februari. Uw kaarten zijn geldig t/m 30 juni 2026.", "label": "1 + 2 cadeau", "offers": ["Exclusief"], "offer_enums": ["EXCLUSIVE"], "categories": ["Wellness"], "types": ["Binnen", "Rustig"], "topic": "event", "location": "", "provider": "", "start_date": "2026-02-01 01:00", "end_date": "2026-02-28 23:01", "start_ts": 1769907600, "end_ts": 1772319660, "last_updated": "2026-07-06T11:02:24.675Z", "highlight_event": false, "show_on_website": true, "show_on_app": false, "retail_id": "", "image_url": "", "mobile_image_url": "", "locations": [], "lat": null, "lng": null, "address": "", "is_winactie": false}, {"id": "cb02f1de-3e97-404d-8970-c06e25d39af1", "url": "https://www.vriendenloterij.nl/vipkaart/aanbod/10-jaar-vip-kaart", "name": "10-jaar VIP-KAARTaanbod", "description": "Vier samen met ons 10-jaar VIP-KAART! Steeds nieuw exclusief aanbod om naar uit te kijken! Geldig bij Slagharen, Avifauna, Rederij Lovers, Hortus Botanicus Amsterdam en Kasteeltuinen Arcen (alleen online bestellen).", "label": "Exclusief AANBOD", "offers": ["Exclusief"], "offer_enums": ["EXCLUSIVE"], "categories": ["Eten en Drinken", "Overig", "Festivals en Evenementen", "Pretparken en Speelparken", "Dierentuinen"], "types": [], "topic": "event", "location": "", "provider": "", "start_date": "2026-06-04 00:00", "end_date": "2026-07-08 21:59", "start_ts": 1780531200, "end_ts": 1783547940, "last_updated": "2026-07-06T10:49:21.805Z", "highlight_event": true, "show_on_website": true, "show_on_app": true, "retail_id": "", "image_url": "", "mobile_image_url": "", "locations": [], "lat": null, "lng": null, "address": "", "is_winactie": false}, {"id": "d8b99403-f499-4430-9349-f459eb013a35", "url": "https://www.vriendenloterij.nl/vipkaart/aanbod/spinoza-de-mokum-musical", "name": "Spinoza – de Mokum musical", "description": "De nieuwe zomervoorstelling in het Amsterdamse Bostheater. Met o.a. Malou Gorter, Sarah Janneh en Olaf Ait Tami. Voor dit aanbod is een beperkt aantal kaarten beschikbaar, dus OP=OP.", "label": "SLECHTS € 12,25", "offers": ["Korting"], "offer_enums": ["DISCOUNT"], "categories": ["Theater, Musicals en Concerten"], "types": ["Musical", "Openlucht", "Buiten"], "topic": "event", "location": "Amstelveen", "provider": "Amsterdamse Bostheater", "start_date": "2026-06-02 08:00", "end_date": "2026-07-11 21:59", "start_ts": 1780387200, "end_ts": 1783807140, "last_updated": "2026-07-06T11:14:33.428Z", "highlight_event": false, "show_on_website": true, "show_on_app": true, "retail_id": "", "image_url": "", "mobile_image_url": "", "locations": [{"name": "Amsterdamse Bostheater", "city": "Amstelveen", "province": "Noord-Holland", "address": "De Duizendmeterweg 7 1182 DC Amstelveen", "lat": 52.321716, "lng": 4.825903, "website": "https://bostheater.nl/"}], "lat": 52.321716, "lng": 4.825903, "address": "De Duizendmeterweg 7 1182 DC Amstelveen", "is_winactie": false}, {"id": "e2e7cd7d-14e6-467a-8695-0e3b5b52ea2d", "url": "https://www.vriendenloterij.nl/vipkaart/aanbod/bokkenrijders", "name": "Bokkenrijders", "description": "Spannende spektakelmusical in de openlucht. Het meeslepende verhaal over een duister stuk Limburgse geschiedenis. Van de makers van het succesvolle *Het Geluk van Limburg*. Nóg één speciale voorstelling op het Vrijthof.", "label": "25% korting", "offers": ["Korting"], "offer_enums": ["DISCOUNT"], "categories": ["Theater, Musicals en Concerten"], "types": ["Musical", "Openlucht"], "topic": "event", "location": "Maastricht", "provider": "Theater aan het Vrijthof", "start_date": "2026-07-13 08:00", "end_date": "2026-07-13 21:59", "start_ts": 1783929600, "end_ts": 1783979940, "last_updated": "2026-07-06T10:51:13.699Z", "highlight_event": false, "show_on_website": true, "show_on_app": true, "retail_id": "", "image_url": "", "mobile_image_url": "", "locations": [{"name": "Theater aan het Vrijthof", "city": "Maastricht", "province": "Limburg", "address": "Vrijthof 47 6211 LE Maastricht", "lat": 50.849277, "lng": 5.689335, "website": "https://www.theateraanhetvrijthof.nl/"}], "lat": 50.849277, "lng": 5.689335, "address": "Vrijthof 47 6211 LE Maastricht", "is_winactie": false}, {"id": "2e88f26b-f764-4773-99b3-69ca5625ba8b", "url": "https://www.vriendenloterij.nl/vipkaart/aanbod/wereld-muziek-concours", "name": "Wereld Muziek Concours", "description": "Ervaar de energie van duizenden muzikanten van over heel de wereld. Muziek, show en spektakel voor jong en oud. Gebruik de kortingscode VIPKAART26.", "label": "20% korting", "offers": ["Korting"], "offer_enums": ["DISCOUNT"], "categories": ["Festivals en Evenementen", "Theater, Musicals en Concerten"], "types": ["Buiten", "Concerten", "Openlucht", "Rustig"], "topic": "event", "location": "Kerkrade", "provider": "Parkstad Limburg Stadion", "start_date": "2026-07-11 08:00", "end_date": "2026-07-19 21:59", "start_ts": 1783756800, "end_ts": 1784498340, "last_updated": "2026-07-06T10:46:06.793Z", "highlight_event": false, "show_on_website": true, "show_on_app": true, "retail_id": "", "image_url": "", "mobile_image_url": "", "locations": [{"name": "Parkstad Limburg Stadion", "city": "Kerkrade", "province": "Limburg", "address": "Roda J.C. Ring 1 1 6466 NH Kerkrade", "lat": 50.857578, "lng": 6.005402, "website": ""}], "lat": 50.857578, "lng": 6.005402, "address": "Roda J.C. Ring 1 1 6466 NH Kerkrade", "is_winactie": false}, {"id": "3cb7cf03-d41e-44c2-99e2-e9975cefdcec", "url": "https://www.vriendenloterij.nl/vipkaart/aanbod/moulin-rouge", "name": "Moulin Rouge! De Musical", "description": "Musical vol romantiek en drama. Laatste kans! Stopt 2 augustus.", "label": "30% voordeel", "offers": ["Korting"], "offer_enums": ["DISCOUNT"], "categories": ["Theater, Musicals en Concerten"], "types": ["Dans", "Musical", "Binnen"], "topic": "event", "location": "Utrecht", "provider": "Beatrixtheater Utrecht", "start_date": "", "end_date": "2026-07-31 21:59", "start_ts": 0, "end_ts": 1785535140, "last_updated": "2026-07-06T11:01:03.737Z", "highlight_event": false, "show_on_website": true, "show_on_app": true, "retail_id": "", "image_url": "", "mobile_image_url": "", "locations": [{"name": "Beatrixtheater Utrecht", "city": "Utrecht", "province": "Utrecht", "address": "Jaarbeursplein 6a 3521 AL Utrecht", "lat": 52.087874, "lng": 5.106749, "website": "https://www.stage-entertainment.nl/theaters/beatrix-theater-utrecht"}], "lat": 52.087874, "lng": 5.106749, "address": "Jaarbeursplein 6a 3521 AL Utrecht", "is_winactie": false}, {"id": "aba9a5a8-e3e6-4f6c-9244-ed160173730c", "url": "https://www.vriendenloterij.nl/vipkaart/aanbod/het-utrechtse-zomerspektakel", "name": "Het Utrechtse Zomerspektakel", "description": "Pure vakantiesfeer in Jaarbeurs Utrecht. Pop-up pretpark vol zomerplezier. Geniet van zonnige activiteiten en entertainment.", "label": "Slechts € 7,50", "offers": ["Korting"], "offer_enums": ["DISCOUNT"], "categories": ["Festivals en Evenementen"], "types": ["Binnen"], "topic": "event", "location": "Utrecht", "provider": "Jaarbeurs Utrecht", "start_date": "2026-07-02 08:00", "end_date": "2026-08-02 21:59", "start_ts": 1782979200, "end_ts": 1785707940, "last_updated": "2026-07-06T10:47:45.335Z", "highlight_event": false, "show_on_website": true, "show_on_app": true, "retail_id": "", "image_url": "", "mobile_image_url": "", "locations": [{"name": "Jaarbeurs Utrecht", "city": "Utrecht", "province": "Utrecht", "address": "Jaarbeursplein 6 3521 AL Utrecht", "lat": 52.087781, "lng": 5.106839, "website": ""}], "lat": 52.087781, "lng": 5.106839, "address": "Jaarbeursplein 6 3521 AL Utrecht", "is_winactie": false}, {"id": "06670b06-f5f5-4b61-911d-c0ba5b2bdc47", "url": "https://www.vriendenloterij.nl/vipkaart/aanbod/grachtenfestival", "name": "Grachtenfestival", "description": "10 dagen lang de mooiste concerten in Amsterdam. Geniet van intieme optredens op unieke plekken. Voor dit aanbod is een beperkt aantal kaarten beschikbaar, dus OP=OP.", "label": "50% korting", "offers": ["Korting"], "offer_enums": ["DISCOUNT"], "categories": ["Festivals en Evenementen", "Theater, Musicals en Concerten"], "types": ["Concerten"], "topic": "event", "location": "Amsterdam", "provider": "Grachtenfestival (diverse locaties)", "start_date": "2026-08-07 05:17", "end_date": "2026-08-16 21:59", "start_ts": 1786079820, "end_ts": 1786917540, "last_updated": "2026-07-06T10:59:07.217Z", "highlight_event": false, "show_on_website": true, "show_on_app": true, "retail_id": "", "image_url": "", "mobile_image_url": "", "locations": [{"name": "Grachtenfestival (diverse locaties)", "city": "Amsterdam", "province": "Noord-Holland", "address": "Vondelpark 3 1071 AA Amsterdam", "lat": 52.361065, "lng": 4.874989, "website": ""}], "lat": 52.361065, "lng": 4.874989, "address": "Vondelpark 3 1071 AA Amsterdam", "is_winactie": false}, {"id": "c97e6c98-7ab3-4c75-8a7a-20becc80f890", "url": "https://www.vriendenloterij.nl/vipkaart/aanbod/the-little-big-things", "name": "The Little Big Things", "description": "Deze indrukwekkende West-End musical komt deze zomer naar Carré. Een hartverwarmend en waargebeurd verhaal. Over familie, veerkracht en hoe kleine dingen een groot verschil maken.", "label": "20% korting", "offers": ["Korting"], "offer_enums": ["DISCOUNT"], "categories": ["Theater, Musicals en Concerten"], "types": ["Binnen", "Musical"], "topic": "event", "location": "Amsterdam", "provider": "Koninklijk Theater Carré", "start_date": "2026-06-20 00:00", "end_date": "2026-08-16 21:59", "start_ts": 1781913600, "end_ts": 1786917540, "last_updated": "2026-07-06T10:46:12.739Z", "highlight_event": false, "show_on_website": true, "show_on_app": true, "retail_id": "", "image_url": "", "mobile_image_url": "", "locations": [{"name": "Koninklijk Theater Carré", "city": "Amsterdam", "province": "Noord-Holland", "address": "Amstel 115 - 125 1018 EM Amsterdam", "lat": 52.378, "lng": 4.9, "website": "https://carre.nl/"}], "lat": 52.378, "lng": 4.9, "address": "Amstel 115 - 125 1018 EM Amsterdam", "is_winactie": false}, {"id": "b91a7707-1d71-4837-93ad-311ae7d4405a", "url": "https://www.vriendenloterij.nl/vipkaart/aanbod/vrije-academie-de-kathedralen-van-noord-frankrijk", "name": "Studiedag De kathedralen van Noord-Frankrijk", "description": "Verdiep u in de indrukwekkende gotische bouwkunst. Een boeiende lezing door historicus Krzysztof Dobrowolski-Onclin. Online én op diverse locaties te volgen.", "label": "20% korting", "offers": ["Korting"], "offer_enums": ["DISCOUNT"], "categories": ["Overig"], "types": ["Binnen", "Historisch"], "topic": "event", "location": "Amsterdam", "provider": "Vrije Academie", "start_date": "2026-06-30 08:00", "end_date": "2026-08-21 21:59", "start_ts": 1782806400, "end_ts": 1787349540, "last_updated": "2026-07-06T10:45:53.562Z", "highlight_event": false, "show_on_website": true, "show_on_app": true, "retail_id": "", "image_url": "", "mobile_image_url": "", "locations": [{"name": "Vrije Academie", "city": "Amsterdam", "province": "Noord-Holland", "address": "Keizersgracht 258 1016 EV Amsterdam", "lat": 52.371734, "lng": 4.884293, "website": "https://www.vrijeacademie.nl/"}, {"name": "Stadsklooster San Damiano", "city": "'s-Hertogenbosch", "province": "Noord-Brabant", "address": "Van der Does de Willeboissingel 12 5211 CB 's-Hertogenbosch", "lat": 51.689017, "lng": 5.297441, "website": "https://www.stadskloostersandamiano.nl/"}, {"name": "De Kargadoor", "city": "Utrecht", "province": "Utrecht", "address": "Oudegracht 36 3511 AP Utrecht", "lat": 52.095347, "lng": 5.116829, "website": ""}, {"name": "Doopsgezinde Kerk Haarlem", "city": "Haarlem", "province": "Noord-Holland", "address": "Frankestraat 24 2011 HV Haarlem", "lat": 52.379355, "lng": 4.635198, "website": "https://doopsgezindhaarlem.nl/#"}], "lat": 52.371734, "lng": 4.884293, "address": "Keizersgracht 258 1016 EV Amsterdam", "is_winactie": false}, {"id": "bd359524-ba2e-480e-b794-cfd9dacd3a6a", "url": "https://www.vriendenloterij.nl/vipkaart/aanbod/tuinconcerten-wibi-soerjadi", "name": "Tuinconcerten van Wibi Soerjadi", "description": "Geniet van prachtige klassieke muziek op een bijzonder landgoed. Van bekende klassiekers tot  virtuoze bewerkingen van filmsoundtracks. Kom in stijl met de dresscode *a touch of green*.", "label": "30% korting", "offers": ["Korting"], "offer_enums": ["DISCOUNT"], "categories": ["Theater, Musicals en Concerten"], "types": ["Concerten", "Openlucht", "Buiten"], "topic": "event", "location": "Diepenheim", "provider": "Villa Peckedam", "start_date": "2026-07-11 07:00", "end_date": "2026-08-30 21:58", "start_ts": 1783753200, "end_ts": 1788127080, "last_updated": "2026-07-06T10:45:56.974Z", "highlight_event": false, "show_on_website": true, "show_on_app": true, "retail_id": "", "image_url": "", "mobile_image_url": "", "locations": [{"name": "Villa Peckedam", "city": "Diepenheim", "province": "Overijssel", "address": "Goorseweg 30 7478 DD Diepenheim", "lat": 52.201804, "lng": 6.562091, "website": "https://soerjadi.com/"}], "lat": 52.201804, "lng": 6.562091, "address": "Goorseweg 30 7478 DD Diepenheim", "is_winactie": false}, {"id": "f9527181-e0a3-414e-b23c-9a32c283f6e0", "url": "https://www.vriendenloterij.nl/vipkaart/aanbod/de-parade", "name": "Theaterfestival de Parade", "description": "Beleef hét rondreizende theaterfestival! Geniet van geweldige voorstellingen en de gezellige sfeer. Toegang tot het festivalterrein voor slechts € 2,50. Er is een beperkt aantal kaarten, OP=OP.", "label": "Slechts € 2,50", "offers": ["Korting"], "offer_enums": ["DISCOUNT"], "categories": ["Festivals en Evenementen", "Theater, Musicals en Concerten"], "types": ["Theater", "Dans", "Cabaret", "Concerten", "Openlucht", "Buiten", "Binnen", "Gezin"], "topic": "event", "location": "Amsterdam", "provider": "De Parade - Amsterdam", "start_date": "2026-06-19 09:59", "end_date": "2026-08-30 21:59", "start_ts": 1781863140, "end_ts": 1788127140, "last_updated": "2026-07-06T10:59:28.682Z", "highlight_event": false, "show_on_website": true, "show_on_app": true, "retail_id": "", "image_url": "", "mobile_image_url": "", "locations": [{"name": "De Parade - Amsterdam", "city": "Amsterdam", "province": "Noord-Holland", "address": "Amsteldijk 223 1079 LK Amsterdam", "lat": 52.33851, "lng": 4.906402, "website": "https://deparade.nl/informatie/locatie-amsterdam/"}, {"name": "De Parade - Den Haag", "city": "Den Haag", "province": "Zuid-Holland", "address": "Westbroekpark 1 2587 BK Den Haag", "lat": 52.158988, "lng": 4.478967, "website": "https://deparade.nl/informatie/locatie-den-haag/"}, {"name": "De Parade - Utrecht", "city": "Utrecht", "province": "Utrecht", "address": "Moreelsepark 1 3511 ER Utrecht", "lat": 52.088683, "lng": 5.113822, "website": "https://deparade.nl/informatie/locatie-utrecht/"}, {"name": "De Parade - Rotterdam", "city": "Rotterdam", "province": "Zuid-Holland", "address": "Museumpark 32 3015 CX Rotterdam", "lat": 51.913839, "lng": 4.470493, "website": "https://deparade.nl/informatie/locatie-rotterdam/"}], "lat": 52.33851, "lng": 4.906402, "address": "Amsteldijk 223 1079 LK Amsterdam", "is_winactie": false}, {"id": "2c01a991-a06a-4333-a797-159ec3db09ce", "url": "https://www.vriendenloterij.nl/vipkaart/aanbod/passiespelen-tegelen-kruisig-mij", "name": "Theaterspektakel Passiespelen Tegelen -  Kruisig mij", "description": "Indrukwekkend theaterspektakel in het Limburgse Tegelen. Aangrijpend, ontroerend en inspirerend. Ontvang 20% korting met de kortingscode VH8JK3.", "label": "20% korting", "offers": ["Korting"], "offer_enums": ["DISCOUNT"], "categories": ["Theater, Musicals en Concerten"], "types": ["Theater", "Openlucht", "Buiten"], "topic": "event", "location": "Tegelen", "provider": "Openluchttheater De Doolhof", "start_date": "2026-05-17 08:00", "end_date": "2026-08-30 21:59", "start_ts": 1779004800, "end_ts": 1788127140, "last_updated": "2026-07-06T10:46:24.646Z", "highlight_event": false, "show_on_website": true, "show_on_app": true, "retail_id": "", "image_url": "", "mobile_image_url": "", "locations": [{"name": "Openluchttheater De Doolhof", "city": "Tegelen", "province": "Limburg", "address": "De Drink 60 5932 CP Tegelen", "lat": 51.336659, "lng": 6.145565, "website": ""}], "lat": 51.336659, "lng": 6.145565, "address": "De Drink 60 5932 CP Tegelen", "is_winactie": false}, {"id": "bd3a4ed2-e1bc-4b4e-a30f-6ebcca48c64e", "url": "https://www.vriendenloterij.nl/vipkaart/aanbod/zomerconcerten", "name": "VriendenLoterij ZomerConcerten", "description": "Van pop tot klassiek, en van jazz tot filmmuziek. 50% korting op 2 kaarten per concert per VIP-KAART. Mis het niet.", "label": "50% korting", "offers": ["Korting", "Exclusief"], "offer_enums": ["DISCOUNT", "EXCLUSIVE"], "categories": ["Theater, Musicals en Concerten"], "types": ["Concerten", "Binnen"], "topic": "event", "location": "Amsterdam", "provider": "Het Concertgebouw", "start_date": "2026-06-29 00:00", "end_date": "2026-08-31 21:59", "start_ts": 1782691200, "end_ts": 1788213540, "last_updated": "2026-07-06T11:03:35.506Z", "highlight_event": false, "show_on_website": true, "show_on_app": true, "retail_id": "", "image_url": "", "mobile_image_url": "", "locations": [{"name": "Het Concertgebouw", "city": "Amsterdam", "province": "Noord-Holland", "address": "Concertgebouwplein 10 1071 LN Amsterdam", "lat": 52.355894, "lng": 4.878337, "website": "https://www.concertgebouw.nl/"}], "lat": 52.355894, "lng": 4.878337, "address": "Concertgebouwplein 10 1071 LN Amsterdam", "is_winactie": false}, {"id": "288f6488-37c2-497e-b771-656f1e8db29d", "url": "https://www.vriendenloterij.nl/vipkaart/aanbod/viva-classic-live-sef-thissen", "name": "Viva Classic Live", "description": "Groots opera-evenement in het teken van filmmuziek. Een muzikale beleving in de openlucht met o.a. *special guests* Ellen ten Damme & Antonello Palombi. Voor dit aanbod is een beperkt aantal kaarten beschikbaar, dus OP=OP.", "label": "50% korting", "offers": ["Korting"], "offer_enums": ["DISCOUNT"], "categories": ["Theater, Musicals en Concerten"], "types": ["Openlucht", "Concerten", "Buiten"], "topic": "event", "location": "Venlo", "provider": "Julianapark", "start_date": "2026-09-04 08:00", "end_date": "2026-09-05 21:59", "start_ts": 1788508800, "end_ts": 1788645540, "last_updated": "2026-07-06T11:14:23.944Z", "highlight_event": false, "show_on_website": true, "show_on_app": true, "retail_id": "", "image_url": "", "mobile_image_url": "", "locations": [{"name": "Julianapark", "city": "Venlo", "province": "Limburg", "address": "Deken van Oppensingel 1 5911 AD Venlo", "lat": 51.36701, "lng": 6.171344, "website": ""}], "lat": 51.36701, "lng": 6.171344, "address": "Deken van Oppensingel 1 5911 AD Venlo", "is_winactie": false}, {"id": "e0be72c6-b779-479d-80ef-1c57994896a3", "url": "https://www.vriendenloterij.nl/vipkaart/aanbod/de-graanrepubliek", "name": "De Graanrepubliek", "description": "Muziektheater in de buitenlucht. Spannend verhaal over de strijd tussen machtige herenboeren en landarbeiders. Voor dit aanbod is een beperkt aantal kaarten beschikbaar, dus OP=OP! Gebruik de code VLXZB2026.", "label": "50% korting", "offers": ["Korting"], "offer_enums": ["DISCOUNT"], "categories": ["Theater, Musicals en Concerten"], "types": ["Buiten", "Theater", "Openlucht"], "topic": "event", "location": "Oostwold", "provider": "Oostwold", "start_date": "2026-08-05 00:00", "end_date": "2026-09-06 21:59", "start_ts": 1785888000, "end_ts": 1788731940, "last_updated": "2026-07-02T15:53:39.964Z", "highlight_event": true, "show_on_website": true, "show_on_app": true, "retail_id": "", "image_url": "", "mobile_image_url": "", "locations": [{"name": "Oostwold", "city": "Oostwold", "province": "Groningen", "address": "Polderweg 28 9682 XS Oostwold", "lat": 53.207927, "lng": 7.041846, "website": "https://www.zummerbuhne.nl/praktische-informatie"}], "lat": 53.207927, "lng": 7.041846, "address": "Polderweg 28 9682 XS Oostwold", "is_winactie": false}, {"id": "eeb26906-7c33-4cc0-8d15-19759643d499", "url": "https://www.vriendenloterij.nl/vipkaart/aanbod/hendricks-karavaan", "name": "Hendricks Karavaan", "description": "Beleef theater en live muziek op drie bijzondere monumentale locaties. Een magische ervaring voor jong en oud. Voor dit aanbod is een beperkt aantal kaarten beschikbaar, dus OP=OP.", "label": "50% korting", "offers": ["Korting"], "offer_enums": ["DISCOUNT"], "categories": ["Theater, Musicals en Concerten", "Festivals en Evenementen"], "types": ["Theater", "Concerten", "Binnen", "Historisch"], "topic": "event", "location": "Steenwijk", "provider": "Museumhuis Rams Woerthe", "start_date": "2026-08-20 03:00", "end_date": "2026-09-06 21:59", "start_ts": 1787194800, "end_ts": 1788731940, "last_updated": "2026-07-07T07:25:52.093Z", "highlight_event": false, "show_on_website": true, "show_on_app": true, "retail_id": "", "image_url": "", "mobile_image_url": "", "locations": [{"name": "Museumhuis Rams Woerthe", "city": "Steenwijk", "province": "Overijssel", "address": "Gasthuislaan 2 8331 MX Steenwijk", "lat": 52.785285, "lng": 6.112412, "website": "https://www.hendrickdekeyser.nl/museumbezoek/villa-rams-woerthe-Steenwijk"}, {"name": "Museumhuis Van Eysinga", "city": "Leeuwarden", "province": "Friesland", "address": "Koningsstraat 25 8911 KV Leeuwarden", "lat": 53.202628, "lng": 5.800843, "website": "https://www.hendrickdekeyser.nl/museumbezoek/huis-van-eysinga-leeuwarden#info-rating"}, {"name": "Huis Hodshon", "city": "Haarlem", "province": "Noord-Holland", "address": "Spaarne 17 2011 CD Haarlem", "lat": 52.379596, "lng": 4.639642, "website": ""}], "lat": 52.785285, "lng": 6.112412, "address": "Gasthuislaan 2 8331 MX Steenwijk", "is_winactie": false}, {"id": "1c695158-d747-422a-b80b-6cbc42b3b750", "url": "https://www.vriendenloterij.nl/vipkaart/aanbod/het-grootste-zwanenmeer-ter-wereld", "name": "Het Grootste Zwanenmeer ter Wereld", "description": "Beleef het beroemdste ballet ter wereld. Schitterende voorstelling door het vermaarde Shanghai Ballet. Slechts voor even te zien in Den Haag, mis het niet.", "label": "40% korting", "offers": ["Korting"], "offer_enums": ["DISCOUNT"], "categories": ["Theater, Musicals en Concerten"], "types": ["Dans"], "topic": "event", "location": "Den Haag", "provider": "World Forum Den Haag", "start_date": "2026-08-28 08:00", "end_date": "2026-09-06 21:59", "start_ts": 1787904000, "end_ts": 1788731940, "last_updated": "2026-07-06T10:47:54.646Z", "highlight_event": false, "show_on_website": true, "show_on_app": true, "retail_id": "", "image_url": "", "mobile_image_url": "", "locations": [{"name": "World Forum Den Haag", "city": "Den Haag", "province": "Zuid-Holland", "address": "Churchillplein 10 2517 JW Den Haag", "lat": 52.092551, "lng": 4.282777, "website": "https://www.worldforum.nl/"}], "lat": 52.092551, "lng": 4.282777, "address": "Churchillplein 10 2517 JW Den Haag", "is_winactie": false}, {"id": "aed56b2d-4681-4b82-9153-7797531a4887", "url": "https://www.vriendenloterij.nl/vipkaart/aanbod/lezing-art-zoo-museum", "name": "Lezing Art Zoo Museum", "description": "Bijzondere lezing over de taxidermiekunst van Darwin, Sinke & Van Tongeren. Ontdek een artistieke wereld vol dieren en verbeelding. Inclusief bezoek aan het Art Zoo Museum.", "label": "20% korting", "offers": ["Korting"], "offer_enums": ["DISCOUNT"], "categories": ["Overig"], "types": ["Binnen", "Kunst"], "topic": "event", "location": "Amsterdam", "provider": "Art Zoo Museum", "start_date": "2026-05-06 22:00", "end_date": "2026-09-11 21:59", "start_ts": 1778104800, "end_ts": 1789163940, "last_updated": "2026-07-06T10:45:49.062Z", "highlight_event": false, "show_on_website": true, "show_on_app": true, "retail_id": "", "image_url": "", "mobile_image_url": "", "locations": [{"name": "Art Zoo Museum", "city": "Amsterdam", "province": "Noord-Holland", "address": "Herengracht 368 1016 CH Amsterdam", "lat": 52.368514, "lng": 4.886265, "website": ""}], "lat": 52.368514, "lng": 4.886265, "address": "Herengracht 368 1016 CH Amsterdam", "is_winactie": false}, {"id": "0b5df152-1856-4cd4-815e-46ba46bbfb06", "url": "https://www.vriendenloterij.nl/vipkaart/aanbod/geef-mij-maar-amsterdam", "name": "Geef Mij Maar Amsterdam", "description": "Heerlijk avondje ouderwets Amsterdamse gezelligheid. Met optredens van o.a. Robert van Hemert, Wesly Bronkhorst en Sven Versteeg. Een onvergetelijke muzikale ervaring. Gebruik de kortingscode Amsterdam25.", "label": "25% korting", "offers": ["Korting"], "offer_enums": ["DISCOUNT"], "categories": ["Theater, Musicals en Concerten"], "types": ["Concerten"], "topic": "event", "location": "Amsterdam", "provider": "AFAS Theater", "start_date": "2026-09-12 16:00", "end_date": "2026-09-12 21:59", "start_ts": 1789228800, "end_ts": 1789250340, "last_updated": "2026-07-06T10:50:32.469Z", "highlight_event": false, "show_on_website": true, "show_on_app": true, "retail_id": "", "image_url": "", "mobile_image_url": "", "locations": [{"name": "AFAS Theater", "city": "Amsterdam", "province": "Noord-Holland", "address": "Johan Cruijff Boulevard 590 1101 DS Amsterdam", "lat": 52.312291, "lng": 4.94422, "website": "https://www.afaslive.nl/"}], "lat": 52.312291, "lng": 4.94422, "address": "Johan Cruijff Boulevard 590 1101 DS Amsterdam", "is_winactie": false}, {"id": "2d9f019d-7885-4b00-879b-ab7d9fc0cc48", "url": "https://www.vriendenloterij.nl/vipkaart/aanbod/padel-copa-utrecht", "name": "Padel Copa Utrecht", "description": "Beleef professioneel padel van dichtbij. Geweldig evenement waar topsport en entertainment samenkomen. Gebruik de kortingscode VL25.", "label": "25% korting", "offers": ["Korting"], "offer_enums": ["DISCOUNT"], "categories": ["Sport en Bewegen"], "types": [], "topic": "event", "location": "Utrecht", "provider": "Jaarbeursplein", "start_date": "2026-09-10 08:00", "end_date": "2026-09-13 21:59", "start_ts": 1789027200, "end_ts": 1789336740, "last_updated": "2026-07-06T10:48:25.262Z", "highlight_event": false, "show_on_website": true, "show_on_app": true, "retail_id": "", "image_url": "", "mobile_image_url": "", "locations": [{"name": "Jaarbeursplein", "city": "Utrecht", "province": "Utrecht", "address": "Jaarbeursplein 1 3521 CA Utrecht", "lat": 52.08778, "lng": 5.106839, "website": ""}], "lat": 52.08778, "lng": 5.106839, "address": "Jaarbeursplein 1 3521 CA Utrecht", "is_winactie": false}, {"id": "77ffb50e-0ff7-4b0c-8a7b-dc0ca8b8923f", "url": "https://www.vriendenloterij.nl/vipkaart/aanbod/driegangenkeuzemenu-humphrey-s-restaurants", "name": "Driegangenkeuzemenu bij Humphrey's Restaurants", "description": "Geniet van een heerlijk avondje uit eten. Uitgebreid dineren op een van de 8 locaties.", "label": "tot € 7,50 korting", "offers": ["Korting"], "offer_enums": ["DISCOUNT"], "categories": ["Eten en Drinken"], "types": ["Binnen"], "topic": "event", "location": "Amersfoort", "provider": "Humphrey's Amersfoort", "start_date": "2026-06-01 00:00", "end_date": "2026-09-20 21:59", "start_ts": 1780272000, "end_ts": 1789941540, "last_updated": "2026-07-06T10:46:34.012Z", "highlight_event": false, "show_on_website": true, "show_on_app": true, "retail_id": "", "image_url": "", "mobile_image_url": "", "locations": [{"name": "Humphrey's Amersfoort", "city": "Amersfoort", "province": "Utrecht", "address": "Bloemendalsestraat 61 3811 ER Amersfoort", "lat": 52.159624, "lng": 5.390373, "website": ""}, {"name": "Humphrey's Nijmegen", "city": "Nijmegen", "province": "Gelderland", "address": "Mariënburg 59 6511 PS Nijmegen", "lat": 51.844706, "lng": 5.867383, "website": ""}, {"name": "Humphrey's Utrecht", "city": "Utrecht", "province": "Utrecht", "address": "Stadhuisbrug 3 3511 KP Utrecht", "lat": 52.09156, "lng": 5.11984, "website": ""}, {"name": "Humphrey's Amsterdam", "city": "Amsterdam", "province": "Noord-Holland", "address": "Nieuwezijds Kolk 23 1012 PV Amsterdam", "lat": 52.376144, "lng": 4.894244, "website": ""}, {"name": "Humphrey's Rotterdam", "city": "Rotterdam", "province": "Zuid-Holland", "address": "Otto Reuchlinweg 1004 3072 MD Rotterdam", "lat": 51.904505, "lng": 4.486276, "website": ""}, {"name": "Humphrey's Zwolle", "city": "Zwolle", "province": "Overijssel", "address": "Melkmarkt 47 8011 MB Zwolle", "lat": 52.513284, "lng": 6.090149, "website": ""}, {"name": "Humphrey's Breda", "city": "Breda", "province": "Noord-Brabant", "address": "Catharinastraat 1 4811 XD Breda", "lat": 51.589581, "lng": 4.77644, "website": ""}, {"name": "Humphrey's Thorn", "city": "Thorn", "province": "Zuid-Holland", "address": "Meers 30 6017 BD Thorn", "lat": 51.157681, "lng": 5.862803, "website": ""}], "lat": 52.159624, "lng": 5.390373, "address": "Bloemendalsestraat 61 3811 ER Amersfoort", "is_winactie": false}, {"id": "0d3e6f47-c5ec-43fc-9834-2d3aac9816ec", "url": "https://www.vriendenloterij.nl/vipkaart/aanbod/beachvolleybal-queen-king-of-the-court-utrecht", "name": "Queen & King of the Court Utrecht", "description": "Beleef beachvolleybal op topniveau. Unieke teams van topspelers uit verschillende landen. Gebruik de kortingscode VL25.", "label": "25% korting", "offers": ["Korting"], "offer_enums": ["DISCOUNT"], "categories": ["Sport en Bewegen"], "types": ["Binnen", "Spannend"], "topic": "event", "location": "Utrecht", "provider": "Jaarbeursplein", "start_date": "2026-09-17 08:00", "end_date": "2026-09-20 21:59", "start_ts": 1789632000, "end_ts": 1789941540, "last_updated": "2026-07-06T10:46:40.715Z", "highlight_event": false, "show_on_website": true, "show_on_app": true, "retail_id": "", "image_url": "", "mobile_image_url": "", "locations": [{"name": "Jaarbeursplein", "city": "Utrecht", "province": "Utrecht", "address": "Jaarbeursplein 1 3521 CA Utrecht", "lat": 52.08778, "lng": 5.106839, "website": ""}], "lat": 52.08778, "lng": 5.106839, "address": "Jaarbeursplein 1 3521 CA Utrecht", "is_winactie": false}, {"id": "6b93b19c-bec6-476e-a059-f70d027906ed", "url": "https://www.vriendenloterij.nl/vipkaart/aanbod/carrousel-vis-a-vis", "name": "Theaterspektakel Carrousel", "description": "De nieuwe openluchtvoorstelling van Vis à Vis. Hartverwarmend familieverhaal vol humor,  livemuziek en een vleugje slapstick. Let op: de 50% kortingskaarten zijn helaas uitverkocht.", "label": "20% korting", "offers": ["Korting"], "offer_enums": ["DISCOUNT"], "categories": ["Theater, Musicals en Concerten"], "types": ["Gezin", "Buiten", "Openlucht", "Theater"], "topic": "event", "location": "Almere", "provider": "Vis à Vis", "start_date": "2026-05-23 00:00", "end_date": "2026-09-20 21:59", "start_ts": 1779494400, "end_ts": 1789941540, "last_updated": "2026-07-06T10:46:49.758Z", "highlight_event": false, "show_on_website": true, "show_on_app": true, "retail_id": "", "image_url": "", "mobile_image_url": "", "locations": [{"name": "Vis à Vis", "city": "Almere", "province": "Flevoland", "address": "Muiderzandplaats 1 1361 AK Almere", "lat": 52.33439, "lng": 5.145902, "website": "https://visavis.nl/"}], "lat": 52.33439, "lng": 5.145902, "address": "Muiderzandplaats 1 1361 AK Almere", "is_winactie": false}, {"id": "6e665b08-7d90-4ad1-a731-447eb5b2479d", "url": "https://www.vriendenloterij.nl/vipkaart/aanbod/speelland-beekse-bergen-outdoor", "name": "Speelland Beekse Bergen Outdoor", "description": "Zand, water en speelpret voor het hele gezin. Verschillende attracties. 2 tickets per VIP-KAART met 25% korting. Let op: exclusief entree Speelland Indoor.", "label": "25% Korting", "offers": ["Korting"], "offer_enums": ["DISCOUNT"], "categories": ["Dierentuinen", "Pretparken en Speelparken"], "types": ["Buiten", "Creatief", "Avontuurlijk", "Spannend"], "topic": "event", "location": "Hilvarenbeek", "provider": "Speelland Beekse Bergen", "start_date": "2026-04-01 08:00", "end_date": "2026-09-30 21:59", "start_ts": 1775030400, "end_ts": 1790805540, "last_updated": "2026-07-06T11:02:27.344Z", "highlight_event": false, "show_on_website": true, "show_on_app": true, "retail_id": "", "image_url": "", "mobile_image_url": "", "locations": [{"name": "Speelland Beekse Bergen", "city": "Hilvarenbeek", "province": "Noord-Brabant", "address": "Beekse Bergen 1 5081 NJ Hilvarenbeek", "lat": 51.519114, "lng": 5.109115, "website": "https://www.beeksebergen.nl/spelen"}], "lat": 51.519114, "lng": 5.109115, "address": "Beekse Bergen 1 5081 NJ Hilvarenbeek", "is_winactie": false}, {"id": "4b658399-dbe2-445f-a8d2-fa69f54bd0d3", "url": "https://www.vriendenloterij.nl/vipkaart/aanbod/dierenparkmaand", "name": "September - Dierenparkmaand!", "description": "Met extra korting naar de dierentuin in september. Geldig bij verschillende dierenparken in Nederland. Alleen geldig en te boeken in de periode van 1 t/m 30 september 2026. Bekijk alle deelnemende dierenparken hieronder.", "label": "50% korting", "offers": ["Exclusief"], "offer_enums": ["EXCLUSIVE"], "categories": ["Dierentuinen"], "types": ["Natuur", "Gezin", "Buiten"], "topic": "event", "location": "", "provider": "", "start_date": "2026-09-01 00:00", "end_date": "2026-09-30 23:59", "start_ts": 1788220800, "end_ts": 1790812740, "last_updated": "2026-07-06T11:01:18.991Z", "highlight_event": false, "show_on_website": true, "show_on_app": false, "retail_id": "", "image_url": "", "mobile_image_url": "", "locations": [], "lat": null, "lng": null, "address": "", "is_winactie": false}, {"id": "6cc54366-38d0-4f73-9187-57fd04f8171e", "url": "https://www.vriendenloterij.nl/vipkaart/aanbod/padel-plaza", "name": "Padellen bij Plaza Padel", "description": "Maak kennis met de snelst groeiende sport van Nederland. Ontvang 50% korting op doordeweeks padellen én in het weekende vanaf 14.00 uur. Bestellen is mogelijk t/m 1 oktober 2026. Uw code is geldig t/m 31 oktober 2026.", "label": "50% korting", "offers": ["Korting"], "offer_enums": ["DISCOUNT"], "categories": ["Sport en Bewegen"], "types": ["Binnen", "Buiten"], "topic": "event", "location": "", "provider": "", "start_date": "", "end_date": "2026-10-01 21:59", "start_ts": 0, "end_ts": 1790891940, "last_updated": "2026-07-06T10:50:17.404Z", "highlight_event": false, "show_on_website": true, "show_on_app": true, "retail_id": "", "image_url": "", "mobile_image_url": "", "locations": [], "lat": null, "lng": null, "address": "", "is_winactie": false}, {"id": "4ac5b35f-d000-495e-af9f-f076c5480f11", "url": "https://www.vriendenloterij.nl/vipkaart/aanbod/concert-beethovens-negende", "name": "Concertgebouworkest & Iván Fischer - Beethovens Negende", "description": "Geniet van een prachtige uitvoering van de iconische Negende symfonie van Beethoven. Uitgevoerd door het Concertgebouworkest onder leiding van Iván Fischer. Voor dit aanbod is een beperkt aantal kaarten beschikbaar, dus OP=OP.", "label": "50% korting", "offers": ["Korting"], "offer_enums": ["DISCOUNT"], "categories": ["Theater, Musicals en Concerten"], "types": ["Concerten"], "topic": "event", "location": "Amsterdam", "provider": "Ziggo Dome", "start_date": "2026-10-03 18:00", "end_date": "2026-10-03 21:59", "start_ts": 1791050400, "end_ts": 1791064740, "last_updated": "2026-07-06T10:50:33.751Z", "highlight_event": false, "show_on_website": true, "show_on_app": true, "retail_id": "", "image_url": "", "mobile_image_url": "", "locations": [{"name": "Ziggo Dome", "city": "Amsterdam", "province": "Noord-Holland", "address": "De Passage 100 1101 AX Amsterdam", "lat": 52.313698, "lng": 4.938106, "website": "https://www.ziggodome.nl/"}], "lat": 52.313698, "lng": 4.938106, "address": "De Passage 100 1101 AX Amsterdam", "is_winactie": false}, {"id": "86a32a10-4bed-4039-8015-74a49559d252", "url": "https://www.vriendenloterij.nl/vipkaart/aanbod/vrije-academie-antoni-gaudi", "name": "Studiedag Antoni Gaudí", "description": "Een boeiende lezing over de wereldberoemde Spaanse architect. Ontdek hoe Gaudí Barcelona transformeerde met zijn architectuur. Online én op diverse locaties te volgen.", "label": "20% korting", "offers": ["Korting"], "offer_enums": ["DISCOUNT"], "categories": ["Overig"], "types": ["Binnen", "Kunst"], "topic": "event", "location": "Amsterdam", "provider": "Vrije Academie", "start_date": "2026-05-15 08:00", "end_date": "2026-10-07 21:59", "start_ts": 1778832000, "end_ts": 1791410340, "last_updated": "2026-07-06T10:45:52.191Z", "highlight_event": false, "show_on_website": true, "show_on_app": true, "retail_id": "", "image_url": "", "mobile_image_url": "", "locations": [{"name": "Vrije Academie", "city": "Amsterdam", "province": "Noord-Holland", "address": "Keizersgracht 258 1016 EV Amsterdam", "lat": 52.371734, "lng": 4.884293, "website": "https://www.vrijeacademie.nl/"}, {"name": "Zalencentrum Irene", "city": "Apeldoorn", "province": "Gelderland", "address": "Koninginnelaan 3 7315 BJ Apeldoorn", "lat": 52.220591, "lng": 5.955787, "website": "https://www.grotekerkapeldoorn.nl/"}, {"name": "Rijksmuseum Twenthe", "city": "Enschede", "province": "Overijssel", "address": "Lasondersingel 129 7514 BP Enschede", "lat": 52.227699, "lng": 6.897013, "website": "https://www.rijksmuseumtwenthe.nl/"}, {"name": "Waalse Kerk", "city": "Rotterdam", "province": "Zuid-Holland", "address": "Pierre Baylestraat 1 3011 BH Rotterdam", "lat": 51.913838, "lng": 4.479926, "website": "http://www.eglisewallonnerotterdam.nl/"}, {"name": "Bibliotheek Alkmaar Centrum", "city": "Alkmaar", "province": "Noord-Holland", "address": "Gasthuisstraat 2 1811 KC Alkmaar", "lat": 52.633293, "lng": 4.743189, "website": "https://www.bibliotheekkennemerwaard.nl/"}, {"name": "Bergkerk Amersfoort", "city": "Amersfoort", "province": "Utrecht", "address": "Doctor Abraham Kuyperlaan 2 3818 JC Amersfoort", "lat": 52.148513, "lng": 5.367092, "website": "http://www.bergkerk.nl/"}, {"name": "Lutherse Kerk Den Haag", "city": "Den Haag", "province": "Zuid-Holland", "address": "Lutherse Burgwal 7 2512 CB Den Haag", "lat": 52.075138, "lng": 4.309647, "website": ""}, {"name": "Doopsgezinde kerk Groningen", "city": "Groningen", "province": "Groningen", "address": "Oude Boteringestraat 33 9712 GD Groningen", "lat": 53.219897, "lng": 6.564354, "website": "https://doopsgezindengroningen.nl/"}, {"name": "Ontmoetingscentrum De Paperclip", "city": "Velp", "province": "Gelderland", "address": "Eiberstraat 16 6883 EJ Velp", "lat": 51.988663, "lng": 5.985409, "website": "https://www.wijkconnect.com/rheden-rozendaal/velp/organisaties/5816/ontmoetingscentrum-de-paperclip"}], "lat": 52.371734, "lng": 4.884293, "address": "Keizersgracht 258 1016 EV Amsterdam", "is_winactie": false}, {"id": "32477732-42fd-41d8-8986-b0916d7fcdb9", "url": "https://www.vriendenloterij.nl/vipkaart/aanbod/we-will-rock-you", "name": "We Will Rock You", "description": "Beleef dé De QUEEN Musical! Weergaloze show met de hits van Queen. Voor dit aanbod is een beperkt aantal kaarten beschikbaar, dus OP=OP.", "label": "50% korting", "offers": ["Korting"], "offer_enums": ["DISCOUNT"], "categories": ["Theater, Musicals en Concerten"], "types": ["Musical", "Binnen"], "topic": "event", "location": "Rotterdam", "provider": "Nieuwe Luxor Theater", "start_date": "2026-05-06 00:00", "end_date": "2026-10-11 21:59", "start_ts": 1778025600, "end_ts": 1791755940, "last_updated": "2026-07-06T10:45:57.532Z", "highlight_event": false, "show_on_website": true, "show_on_app": true, "retail_id": "", "image_url": "", "mobile_image_url": "", "locations": [{"name": "Nieuwe Luxor Theater", "city": "Rotterdam", "province": "Zuid-Holland", "address": "Posthumalaan 1 3072 AG Rotterdam", "lat": 51.906906, "lng": 4.490908, "website": "https://www.luxortheater.nl/"}, {"name": "DeLaMar", "city": "Amsterdam", "province": "Noord-Holland", "address": "Marnixstraat 402 1017 PL Amsterdam", "lat": 52.364394, "lng": 4.880777, "website": "https://delamar.nl/je-bezoek/bereikbaarheid/"}, {"name": "ATLAS Theater", "city": "Emmen", "province": "Drenthe", "address": "Raadhuisplein 100 7811 AP Emmen", "lat": 52.78306, "lng": 6.891167, "website": "https://www.atlastheater.nl/"}, {"name": "Chassé Theater Breda", "city": "Breda", "province": "Noord-Brabant", "address": "Claudius Prinsenlaan 8 4811 DK Breda", "lat": 51.587473, "lng": 4.782181, "website": "https://www.chasse.nl/"}, {"name": "Parktheater", "city": "Eindhoven", "province": "Noord-Brabant", "address": "Elzentlaan 50 5615 CN Eindhoven", "lat": 51.429143, "lng": 5.484412, "website": "https://www.parktheater.nl/nl/"}, {"name": "Theater & Concert Orpheus", "city": "Apeldoorn", "province": "Gelderland", "address": "Churchillplein 1 7314 BZ Apeldoorn", "lat": 52.219603, "lng": 5.953028, "website": "https://www.orpheus.nl/voorstellingen"}, {"name": "Schouwburg Agnietenhof", "city": "Tiel", "province": "Gelderland", "address": "Sint Agnietenstraat 2 4001 NB Tiel", "lat": 51.885733, "lng": 5.436254, "website": "https://www.agnietenhof.nl/"}], "lat": 51.906906, "lng": 4.490908, "address": "Posthumalaan 1 3072 AG Rotterdam", "is_winactie": false}, {"id": "8ebe62f1-4fea-4c1d-bcf2-579e4ecc4a95", "url": "https://www.vriendenloterij.nl/vipkaart/aanbod/padel-the-padellers", "name": "Padel bij The Padellers", "description": "Ontvang 50% korting op doordeweeks én in het weekend padellen. Bestellen is mogelijk t/m 1 oktober 2026. Uw code is geldig t/m 31 oktober 2026.", "label": "50% korting", "offers": ["Korting"], "offer_enums": ["DISCOUNT"], "categories": ["Sport en Bewegen"], "types": ["Binnen", "Buiten"], "topic": "event", "location": "", "provider": "", "start_date": "", "end_date": "2026-10-31 22:59", "start_ts": 0, "end_ts": 1793487540, "last_updated": "2026-07-06T10:50:15.465Z", "highlight_event": false, "show_on_website": true, "show_on_app": true, "retail_id": "", "image_url": "", "mobile_image_url": "", "locations": [], "lat": null, "lng": null, "address": "", "is_winactie": false}, {"id": "31918a56-39ec-4e19-ab5f-527fc2c53f02", "url": "https://www.vriendenloterij.nl/vipkaart/aanbod/deltapark-neeltje-jans", "name": "Deltapark Neeltje Jans", "description": "Themapark in het teken van water. Leuk en leerzaam uitje voor de hele familie. Leer alles over de Deltawerken, zeedieren en meer.", "label": "30% korting", "offers": ["Korting"], "offer_enums": ["DISCOUNT"], "categories": ["Pretparken en Speelparken"], "types": ["Buiten", "Openlucht", "Gezin", "Rolstoel", "Natuur", "Avontuurlijk"], "topic": "event", "location": "Vrouwenpolder", "provider": "Deltapark Neeltje Jans", "start_date": "", "end_date": "2026-11-01 22:59", "start_ts": 0, "end_ts": 1793573940, "last_updated": "2026-07-06T10:45:54.566Z", "highlight_event": false, "show_on_website": true, "show_on_app": true, "retail_id": "", "image_url": "", "mobile_image_url": "", "locations": [{"name": "Deltapark Neeltje Jans", "city": "Vrouwenpolder", "province": "Zeeland", "address": "Faelweg 5 4354 RB Vrouwenpolder", "lat": 51.637054, "lng": 3.711951, "website": ""}], "lat": 51.637054, "lng": 3.711951, "address": "Faelweg 5 4354 RB Vrouwenpolder", "is_winactie": false}, {"id": "8809e731-01fb-4ea3-8e8f-80730dcab14e", "url": "https://www.vriendenloterij.nl/vipkaart/aanbod/jumping-indoor-maastricht", "name": "Jumping Indoor Maastricht", "description": "Beleef Jumping Indoor Maastricht. Beleef de magie van de paardensport in Maastricht.", "label": "50% korting", "offers": ["Korting"], "offer_enums": ["DISCOUNT"], "categories": ["Sport en Bewegen"], "types": ["Binnen"], "topic": "event", "location": "Maastricht", "provider": "Jumping Indoor Maastricht", "start_date": "2026-11-05 00:00", "end_date": "2026-11-08 22:59", "start_ts": 1793836800, "end_ts": 1794178740, "last_updated": "2026-07-06T10:50:14.233Z", "highlight_event": false, "show_on_website": true, "show_on_app": true, "retail_id": "", "image_url": "", "mobile_image_url": "", "locations": [{"name": "Jumping Indoor Maastricht", "city": "Maastricht", "province": "Limburg", "address": "Forum 100 6229 GV Maastricht", "lat": 50.837763, "lng": 5.713152, "website": "https://jumpingindoormaastricht.com/"}], "lat": 50.837763, "lng": 5.713152, "address": "Forum 100 6229 GV Maastricht", "is_winactie": false}, {"id": "36f21c18-d47a-41b1-bbaf-73e3715bccc0", "url": "https://www.vriendenloterij.nl/vipkaart/aanbod/idfa", "name": "IDFA", "description": "Bijzondere documentaires over de meest uiteenlopende onderwerpen. Bestel 4 gratis kaarten voor het reguliere filmprogramma (OP=OP). Of ga voor de IDFA Hits in Carré (OP=OP).", "label": "GRATIS", "offers": ["Gratis"], "offer_enums": ["FREE"], "categories": ["Bioscopen en Films", "Festivals en Evenementen"], "types": ["Binnen", "Rustig"], "topic": "event", "location": "", "provider": "", "start_date": "2026-11-12 05:00", "end_date": "2026-11-22 22:59", "start_ts": 1794459600, "end_ts": 1795388340, "last_updated": "2026-07-06T10:54:49.705Z", "highlight_event": false, "show_on_website": true, "show_on_app": true, "retail_id": "", "image_url": "", "mobile_image_url": "", "locations": [], "lat": null, "lng": null, "address": "", "is_winactie": false}, {"id": "e74aaec4-5f51-401c-bd28-27c21c7cf5ed", "url": "https://www.vriendenloterij.nl/vipkaart/aanbod/onze-jordaan", "name": "Onze Jordaan", "description": "Winnaar van maar liefst drie Musical Awards is terug in het theater! Vol emotie, melancholie, eerlijkheid en hoop. Alleen te zien in AFAS Theater Leusden.", "label": "25% korting", "offers": ["Korting"], "offer_enums": ["DISCOUNT"], "categories": ["Theater, Musicals en Concerten"], "types": ["Binnen", "Musical"], "topic": "event", "location": "Leusden", "provider": "AFAS Theater", "start_date": "2026-08-28 08:00", "end_date": "2026-11-27 22:59", "start_ts": 1787904000, "end_ts": 1795820340, "last_updated": "2026-07-06T10:47:26.928Z", "highlight_event": false, "show_on_website": true, "show_on_app": true, "retail_id": "", "image_url": "", "mobile_image_url": "", "locations": [{"name": "AFAS Theater", "city": "Leusden", "province": "Utrecht", "address": "Inspiratielaan 3 3833 AV Leusden", "lat": 52.141926, "lng": 5.421114, "website": ""}], "lat": 52.141926, "lng": 5.421114, "address": "Inspiratielaan 3 3833 AV Leusden", "is_winactie": false}, {"id": "84b3e76d-a797-41d9-88fa-1b0d2e8fa361", "url": "https://www.vriendenloterij.nl/vipkaart/aanbod/museummaand", "name": "VriendenLoterij Museummaand", "description": "Neem iemand gratis mee naar het museum! Geldig bij de deelnemende musea. Alleen geldig op een bezoek van 1 t/m 30 november 2026.", "label": "2 personen gratis", "offers": ["Exclusief"], "offer_enums": ["EXCLUSIVE"], "categories": ["Musea"], "types": ["Kunst", "Binnen", "Historisch", "Oorlog"], "topic": "event", "location": "", "provider": "", "start_date": "2026-11-01 00:00", "end_date": "2026-11-30 23:59", "start_ts": 1793491200, "end_ts": 1796083140, "last_updated": "2026-07-06T11:06:10.970Z", "highlight_event": false, "show_on_website": true, "show_on_app": false, "retail_id": "", "image_url": "", "mobile_image_url": "", "locations": [], "lat": null, "lng": null, "address": "", "is_winactie": false}, {"id": "5e060f04-a9c7-487f-8f28-7139f6f8691b", "url": "https://www.vriendenloterij.nl/vipkaart/aanbod/de-mega-sint-show", "name": "De Mega Sint Show - Chaos in de Cadeaufabriek", "description": "Vol humor, spektakel, interactie en gezelligheid. Met Party Piet Pablo en Love Piet. Geweldige familieshow voor het hele gezin.", "label": "25% korting", "offers": ["Korting"], "offer_enums": ["DISCOUNT"], "categories": ["Theater, Musicals en Concerten"], "types": ["Gezin", "Theater", "Binnen"], "topic": "event", "location": "Hoofddorp", "provider": "C. Theater", "start_date": "2026-11-02 15:55", "end_date": "2026-12-05 22:55", "start_ts": 1793634900, "end_ts": 1796511300, "last_updated": "2026-07-06T10:57:22.689Z", "highlight_event": false, "show_on_website": true, "show_on_app": true, "retail_id": "", "image_url": "", "mobile_image_url": "", "locations": [{"name": "C. Theater", "city": "Hoofddorp", "province": "Noord-Holland", "address": "Raadhuisplein 3-9 2132 TZ Hoofddorp", "lat": 52.301157, "lng": 4.696651, "website": "https://www.cpunt.nl/"}, {"name": "Schouwburg Hengelo", "city": "Hengelo", "province": "Overijssel", "address": "Beursstraat 44 7551 HV Hengelo", "lat": 52.26387, "lng": 6.796807, "website": "https://www.schouwburghengelo.nl/"}, {"name": "Theater De Schalm", "city": "Veldhoven", "province": "Noord-Brabant", "address": "Meiveld 3 5501 KA Veldhoven", "lat": 51.421411, "lng": 5.405165, "website": "https://www.deschalm.com/"}, {"name": "Stadsschouwburg Utrecht", "city": "Utrecht", "province": "Utrecht", "address": "Lucasbolwerk 24 3512 EJ Utrecht", "lat": 52.093233, "lng": 5.127437, "website": "https://stadsschouwburg-utrecht.nl/"}, {"name": "Theater De Leest", "city": "Waalwijk", "province": "Noord-Brabant", "address": "Vredesplein 12 5142 RA Waalwijk", "lat": 51.687257, "lng": 5.070457, "website": "https://www.deleest.nl/?gclid=Cj0KCQiAwbitBhDIARIsABfFYIIf3Mgp8V4yMylh6jl-kRm41Iuk0UIkoHssR69lq0oVsAqv6zW4KEYaAmXNEALw_wcB"}, {"name": "De Nobelaer", "city": "Etten-Leur", "province": "Noord-Brabant", "address": "Parklaan 2 4873 ER Etten-Leur", "lat": 51.568288, "lng": 4.641711, "website": "https://www.denobelaer.nl/"}, {"name": "MECC Maastricht", "city": "Maastricht", "province": "Limburg", "address": "Forum 100 6229 GV Maastricht", "lat": 50.837763, "lng": 5.713152, "website": "https://www.mecc.nl/"}, {"name": "Brabanthallen 's-Hertogenbosch", "city": "Den Bosch", "province": "Noord-Brabant", "address": "Diezekade 1 5222 AK Den Bosch", "lat": 51.703642, "lng": 5.287225, "website": "https://www.brabanthallen.nl/"}, {"name": "Theater De Meerpaal", "city": "Dronten", "province": "Flevoland", "address": "De Rede 80 8251 EX Dronten", "lat": 52.523729, "lng": 5.719609, "website": "https://www.meerpaal.nl/"}, {"name": "Theater Hanzehof & Buitensociëteit", "city": "Zutphen", "province": "Gelderland", "address": "Coehoornsingel 1 7201 AA Zutphen", "lat": 52.148286, "lng": 6.201887, "website": "https://hanzehof.nl/"}, {"name": "AFAS Theater", "city": "Amsterdam", "province": "Noord-Holland", "address": "Johan Cruijff Boulevard 590 1101 DS Amsterdam", "lat": 52.312291, "lng": 4.94422, "website": "https://www.afaslive.nl/"}, {"name": "Schouwburg Venray", "city": "Venray", "province": "Limburg", "address": "Schouwburgplein 1 5801 BV Venray", "lat": 51.525316, "lng": 5.97388, "website": "https://www.schouwburgvenray.nl/"}, {"name": "RAI Amsterdam", "city": "Amsterdam", "province": "Noord-Holland", "address": "Europaplein 24 1078 GZ Amsterdam", "lat": 52.342888, "lng": 4.888803, "website": "https://www.rai.nl/"}, {"name": "Markant Theater Maashorst", "city": "Uden", "province": "Noord-Brabant", "address": "Markt 32 5401 GP Uden", "lat": 51.657158, "lng": 5.617423, "website": "https://www.markantmaashorst.nl/"}, {"name": "Parktheater", "city": "Eindhoven", "province": "Noord-Brabant", "address": "Elzentlaan 50 5615 CN Eindhoven", "lat": 51.429143, "lng": 5.484412, "website": "https://www.parktheater.nl/nl/"}, {"name": "Schaffelaar Theater", "city": "Barneveld", "province": "Gelderland", "address": "Theaterplein 1 3772 KX Barneveld", "lat": 52.136123, "lng": 5.586096, "website": "https://schaffelaartheater.nl/"}, {"name": "Martiniplaza", "city": "Groningen", "province": "Groningen", "address": "Leonard Springerlaan 2 9727 KB Groningen", "lat": 53.202902, "lng": 6.555183, "website": "https://www.martiniplaza.nl/"}, {"name": "Theater de Tamboer", "city": "Hoogeveen", "province": "Drenthe", "address": "Hoofdstraat 17 7902 EA Hoogeveen", "lat": 52.727383, "lng": 6.477853, "website": "https://detamboer.nl/programma?dag=za&gad_source=1&gclid=Cj0KCQiAwbitBhDIARIsABfFYIIGThRkXeW1hiXVznlKkHuOdBzzrvnipBPr-mX5NgWmwzCg5hJ9s6MaAohSEALw_wcB"}, {"name": "Rotterdam Ahoy", "city": "Rotterdam", "province": "Zuid-Holland", "address": "Ahoyweg 10 3084 BA Rotterdam", "lat": 51.883555, "lng": 4.487124, "website": "https://www.ahoy.nl/"}], "lat": 52.301157, "lng": 4.696651, "address": "Raadhuisplein 3-9 2132 TZ Hoofddorp", "is_winactie": false}, {"id": "5c270e4f-fd1f-4ff3-8df4-4c84bc074230", "url": "https://www.vriendenloterij.nl/vipkaart/aanbod/wielerzesdaagse", "name": "WielerZesdaagse 2026", "description": "Beleef topsport van heel dichtbij. Zes dagen vol actie, snelheid en spektakel.", "label": "1+1 gratis", "offers": ["Korting"], "offer_enums": ["DISCOUNT"], "categories": ["Sport en Bewegen"], "types": [], "topic": "event", "location": "Rotterdam", "provider": "Rotterdam Ahoy", "start_date": "2026-12-02 02:00", "end_date": "2026-12-07 22:00", "start_ts": 1796176800, "end_ts": 1796680800, "last_updated": "2026-07-06T10:56:38.313Z", "highlight_event": false, "show_on_website": true, "show_on_app": false, "retail_id": "", "image_url": "", "mobile_image_url": "", "locations": [{"name": "Rotterdam Ahoy", "city": "Rotterdam", "province": "Zuid-Holland", "address": "Ahoyweg 10 3084 BA Rotterdam", "lat": 51.883555, "lng": 4.487124, "website": "https://www.ahoy.nl/"}], "lat": 51.883555, "lng": 4.487124, "address": "Ahoyweg 10 3084 BA Rotterdam", "is_winactie": false}, {"id": "3854dca9-378b-405b-9c47-e401c037f38a", "url": "https://www.vriendenloterij.nl/vipkaart/aanbod/classical-christmas-concert", "name": "Classical Christmas Concert", "description": "Het ultieme kerstconcert. Met pianist Jan Vayne. Traditionele kerstklassiekers van wereldberoemde componisten.", "label": "50% korting", "offers": ["Korting"], "offer_enums": ["DISCOUNT"], "categories": ["Theater, Musicals en Concerten"], "types": ["Concerten", "Binnen", "Rustig"], "topic": "event", "location": "Den Bosch", "provider": "Jheronimus Bosch Art Center", "start_date": "2026-12-11 13:11", "end_date": "2026-12-24 22:59", "start_ts": 1796994660, "end_ts": 1798153140, "last_updated": "2026-07-06T10:57:19.976Z", "highlight_event": false, "show_on_website": true, "show_on_app": true, "retail_id": "", "image_url": "", "mobile_image_url": "", "locations": [{"name": "Jheronimus Bosch Art Center", "city": "Den Bosch", "province": "Noord-Brabant", "address": "Jeroen Boschplein 2 5211 ML Den Bosch", "lat": 51.688092, "lng": 5.312163, "website": "https://jheronimusbosch-artcenter.nl/"}, {"name": "Grote Kerk Elburg", "city": "Elburg", "province": "Gelderland", "address": "Zuiderkerkstraat 1 8081 CJ Elburg", "lat": 52.448484, "lng": 5.836423, "website": "https://www.hervormdelburg.nl/grote-kerk-elburg/"}, {"name": "Martinikerk Groningen", "city": "Groningen", "province": "Groningen", "address": "Martinikerkhof 3 9712 JG Groningen", "lat": 53.219269, "lng": 6.568568, "website": "https://www.visitgroningen.nl/nl/locaties/1801126452/martinikerk-groningen"}, {"name": "AFAS Theater", "city": "Leusden", "province": "Utrecht", "address": "Inspiratielaan 3 3833 AV Leusden", "lat": 52.141926, "lng": 5.421114, "website": ""}, {"name": "Academiehuis Grote Kerk", "city": "Zwolle", "province": "Overijssel", "address": "Grote Markt 18 8011 LW Zwolle", "lat": 52.512019, "lng": 6.092083, "website": "https://www.academiehuis.nl/bezoek"}, {"name": "Stevenskerk Nijmegen", "city": "Nijmegen", "province": "Gelderland", "address": "Sint Stevenskerkhof 62 6511 VZ Nijmegen", "lat": 51.847796, "lng": 5.86278, "website": "https://www.stevenskerk.nl/"}, {"name": "Laurenskerk", "city": "Rotterdam", "province": "Zuid-Holland", "address": "Grotekerkplein 27 3011 GC Rotterdam", "lat": 51.921452, "lng": 4.484906, "website": "https://laurenskerkrotterdam.nl/"}, {"name": "Jacobikerk Utrecht", "city": "Utrecht", "province": "Utrecht", "address": "St Jacobsstraat 171 3511 BP Utrecht", "lat": 52.094965, "lng": 5.115183, "website": "https://www.jacobikerk.nl/"}, {"name": "Het Concertgebouw", "city": "Amsterdam", "province": "Noord-Holland", "address": "Concertgebouwplein 10 1071 LN Amsterdam", "lat": 52.355894, "lng": 4.878337, "website": "https://www.concertgebouw.nl/"}], "lat": 51.688092, "lng": 5.312163, "address": "Jeroen Boschplein 2 5211 ML Den Bosch", "is_winactie": false}, {"id": "93c4babf-9d22-49a6-9706-654b50ff4474", "url": "https://www.vriendenloterij.nl/vipkaart/aanbod/beleef-klassiek-messiah", "name": "Messiah - G.F. Händel", "description": "Feestelijk en intens. Wereldberoemde compositie. Met authentieke strijkinstrumenten uit de barokperiode.", "label": "50% korting", "offers": ["Korting"], "offer_enums": ["DISCOUNT"], "categories": ["Theater, Musicals en Concerten"], "types": ["Binnen", "Concerten", "Rustig"], "topic": "event", "location": "Leusden", "provider": "AFAS Theater", "start_date": "2026-12-11 13:11", "end_date": "2026-12-28 22:59", "start_ts": 1796994660, "end_ts": 1798498740, "last_updated": "2026-07-06T10:57:18.800Z", "highlight_event": false, "show_on_website": true, "show_on_app": true, "retail_id": "", "image_url": "", "mobile_image_url": "", "locations": [{"name": "AFAS Theater", "city": "Leusden", "province": "Utrecht", "address": "Inspiratielaan 3 3833 AV Leusden", "lat": 52.141926, "lng": 5.421114, "website": ""}, {"name": "Het Concertgebouw", "city": "Amsterdam", "province": "Noord-Holland", "address": "Concertgebouwplein 10 1071 LN Amsterdam", "lat": 52.355894, "lng": 4.878337, "website": "https://www.concertgebouw.nl/"}, {"name": "Grote Kerk Elburg", "city": "Elburg", "province": "Gelderland", "address": "Zuiderkerkstraat 1 8081 CJ Elburg", "lat": 52.448484, "lng": 5.836423, "website": "https://www.hervormdelburg.nl/grote-kerk-elburg/"}, {"name": "Martinikerk Groningen", "city": "Groningen", "province": "Groningen", "address": "Martinikerkhof 3 9712 JG Groningen", "lat": 53.219269, "lng": 6.568568, "website": "https://www.visitgroningen.nl/nl/locaties/1801126452/martinikerk-groningen"}, {"name": "Academiehuis Grote Kerk", "city": "Zwolle", "province": "Overijssel", "address": "Grote Markt 18 8011 LW Zwolle", "lat": 52.512019, "lng": 6.092083, "website": "https://www.academiehuis.nl/bezoek"}, {"name": "Stevenskerk Nijmegen", "city": "Nijmegen", "province": "Gelderland", "address": "Sint Stevenskerkhof 62 6511 VZ Nijmegen", "lat": 51.847796, "lng": 5.86278, "website": "https://www.stevenskerk.nl/"}, {"name": "Laurenskerk", "city": "Rotterdam", "province": "Zuid-Holland", "address": "Grotekerkplein 27 3011 GC Rotterdam", "lat": 51.921452, "lng": 4.484906, "website": "https://laurenskerkrotterdam.nl/"}, {"name": "Jacobikerk Utrecht", "city": "Utrecht", "province": "Utrecht", "address": "St Jacobsstraat 171 3511 BP Utrecht", "lat": 52.094965, "lng": 5.115183, "website": "https://www.jacobikerk.nl/"}, {"name": "Marekerk", "city": "Leiden", "province": "Zuid-Holland", "address": "Lange Mare 48 2312 GS Leiden", "lat": 52.162012, "lng": 4.490556, "website": "https://www.marekerk.nl/"}], "lat": 52.141926, "lng": 5.421114, "address": "Inspiratielaan 3 3833 AV Leusden", "is_winactie": false}, {"id": "123d2957-b280-481d-b1cd-62e0be5a5220", "url": "https://www.vriendenloterij.nl/vipkaart/aanbod/top-2000-live", "name": "TOP2000 Live – Listen to the Music", "description": "De grootste hits allertijden. Swing mee met al uw favoriete muziek. Inclusief afterparty met Radio 2 DJ DJ Daniel.", "label": "25% korting", "offers": ["Korting"], "offer_enums": ["DISCOUNT"], "categories": ["Theater, Musicals en Concerten"], "types": ["Binnen", "Concerten"], "topic": "event", "location": "Groningen", "provider": "Martiniplaza", "start_date": "2026-12-29 09:00", "end_date": "2026-12-29 22:59", "start_ts": 1798534800, "end_ts": 1798585140, "last_updated": "2026-07-06T10:48:39.294Z", "highlight_event": false, "show_on_website": true, "show_on_app": true, "retail_id": "", "image_url": "", "mobile_image_url": "", "locations": [{"name": "Martiniplaza", "city": "Groningen", "province": "Groningen", "address": "Leonard Springerlaan 2 9727 KB Groningen", "lat": 53.202902, "lng": 6.555183, "website": "https://www.martiniplaza.nl/"}], "lat": 53.202902, "lng": 6.555183, "address": "Leonard Springerlaan 2 9727 KB Groningen", "is_winactie": false}, {"id": "004e2acf-4675-476b-8ee7-a13b6bb72d96", "url": "https://www.vriendenloterij.nl/vipkaart/aanbod/weekendjeweg-nl", "name": "Arrangementen van Weekendjeweg.nl", "description": "Unieke arrangementen binnen Nederland. Speciaal voor u samengesteld. Volop keuze.", "label": "voordeel", "offers": ["Korting"], "offer_enums": ["DISCOUNT"], "categories": ["Overnachten"], "types": [], "topic": "event", "location": "", "provider": "", "start_date": "", "end_date": "2026-12-31 22:59", "start_ts": 0, "end_ts": 1798757940, "last_updated": "2026-07-06T10:49:59.683Z", "highlight_event": false, "show_on_website": true, "show_on_app": true, "retail_id": "", "image_url": "", "mobile_image_url": "", "locations": [], "lat": null, "lng": null, "address": "", "is_winactie": false}, {"id": "444797b6-8e05-42a9-9d88-47aa7b5cf30a", "url": "https://www.vriendenloterij.nl/vipkaart/aanbod/bewellness-resorts", "name": "BeWellness resorts", "description": "Heerlijk ontspannen bij een van de 10 BeWellness resorts. O.a. geldig bij Elysium, Thermen Holiday, Veluwse Bron en Zwaluwhoeve. Ontvang uw tweede kaartje gratis.", "label": "1 + 1 gratis", "offers": ["Korting"], "offer_enums": ["DISCOUNT"], "categories": ["Wellness"], "types": ["Binnen", "Buiten", "Rustig"], "topic": "event", "location": "Barendrecht", "provider": "Thermen Barendrecht", "start_date": "", "end_date": "2026-12-31 22:59", "start_ts": 0, "end_ts": 1798757940, "last_updated": "2026-07-06T10:46:22.837Z", "highlight_event": false, "show_on_website": true, "show_on_app": true, "retail_id": "", "image_url": "", "mobile_image_url": "", "locations": [{"name": "Thermen Barendrecht", "city": "Barendrecht", "province": "Zuid-Holland", "address": "Achterzeedijk 81 2992 SB Barendrecht", "lat": 51.833859, "lng": 4.5251, "website": "https://thermenbarendrecht.nl/"}, {"name": "Thermen Holiday", "city": "Schiedam", "province": "Zuid-Holland", "address": "Pr. Beatrixlaan 10 3121 JN Schiedam", "lat": 51.927271, "lng": 4.377794, "website": "https://thermenholiday.nl/"}, {"name": "Elysium", "city": "Bleiswijk", "province": "Zuid-Holland", "address": "Kooilaan 1 2665 KR Bleiswijk", "lat": 51.994523, "lng": 4.543164, "website": "https://elysium.nl/wellnessresort"}, {"name": "Veluwse Bron", "city": "Emst", "province": "Gelderland", "address": "Viskweekweg 10 8166 KJ Emst", "lat": 52.30877, "lng": 5.996068, "website": "https://veluwsebron.nl/wellnessresort"}, {"name": "Zwaluwhoeve", "city": "Hierden", "province": "Gelderland", "address": "Zuiderzeestraatweg 108 3849 AJ Hierden", "lat": 52.355272, "lng": 5.675586, "website": "https://zwaluwhoeve.nl/wellnessresort"}, {"name": "SpaPuur", "city": "Tilburg", "province": "Noord-Brabant", "address": "Moerse Dreef 10 5043 AX Tilburg", "lat": 51.585057, "lng": 5.008749, "website": "https://spapuur.nl/wellnessresort"}, {"name": "SpaWeesp", "city": "Weesp", "province": "Noord-Holland", "address": "Basisweg 1 1383 NC Weesp", "lat": 52.298396, "lng": 5.027112, "website": "https://spaweesp.nl/"}, {"name": "SpaSense", "city": "Geldrop", "province": "Noord-Brabant", "address": "Zwembadweg 7 5663 PL Geldrop", "lat": 51.408958, "lng": 5.555565, "website": "https://spasense.nl/wellnessresort"}, {"name": "SpaWeesp", "city": "Peize", "province": "Drenthe", "address": "Smeerveensedijk 4 9321 XB Peize", "lat": 53.144407, "lng": 6.484121, "website": "https://spawell.nl/wellnessresort"}, {"name": "De Valkenberg", "city": "Rheden", "province": "Gelderland", "address": "Arnhemsestraatweg 12 6991 AM Rheden", "lat": 52.016059, "lng": 6.041556, "website": ""}], "lat": 51.833859, "lng": 4.5251, "address": "Achterzeedijk 81 2992 SB Barendrecht", "is_winactie": false}, {"id": "9c6453aa-6e17-4982-973a-3489ea61bc27", "url": "https://www.vriendenloterij.nl/vipkaart/aanbod/cinetree", "name": "Cinetree", "description": "Filmplatform met unieke verzameling films en docu's. Films en documentaires die raken, inspireren en uitdagen. Kijk drie maanden voor slechts € 9,99.", "label": "slechts € 9,99", "offers": ["Korting"], "offer_enums": ["DISCOUNT"], "categories": ["Bioscopen en Films", "Activiteiten Thuis"], "types": ["Binnen"], "topic": "event", "location": "", "provider": "", "start_date": "2026-02-16 23:00", "end_date": "2026-12-31 22:59", "start_ts": 1771282800, "end_ts": 1798757940, "last_updated": "2026-07-06T10:50:07.407Z", "highlight_event": false, "show_on_website": true, "show_on_app": true, "retail_id": "", "image_url": "", "mobile_image_url": "", "locations": [], "lat": null, "lng": null, "address": "", "is_winactie": false}, {"id": "4d532566-af42-4848-a47a-f814fd862f10", "url": "https://www.vriendenloterij.nl/vipkaart/aanbod/voordeel-overnachten-hotel-arrangement", "name": "Hotel- en vakantiepark arrangementen", "description": "Voordelige overnachtingen van Voordeeluitjes.nl. Speciale arrangementen in binnen- en buitenland.", "label": "voordeel", "offers": ["Korting"], "offer_enums": ["DISCOUNT"], "categories": ["Overnachten"], "types": ["Gezin", "Binnen"], "topic": "event", "location": "", "provider": "", "start_date": "2026-01-01 04:00", "end_date": "2026-12-31 22:59", "start_ts": 1767240000, "end_ts": 1798757940, "last_updated": "2026-07-06T10:50:51.701Z", "highlight_event": false, "show_on_website": true, "show_on_app": true, "retail_id": "", "image_url": "", "mobile_image_url": "", "locations": [], "lat": null, "lng": null, "address": "", "is_winactie": false}, {"id": "9a0c2d29-b88a-4ea4-9f7f-d068337bb226", "url": "https://www.vriendenloterij.nl/vipkaart/aanbod/korting-parkeren-q-park", "name": "Parkeren bij Q-Park", "description": "Voordelig parkeren. Profiteer van plaatsgarantie. Reserveer eenvoudig vooraf.", "label": "25% korting", "offers": ["Korting"], "offer_enums": ["DISCOUNT"], "categories": ["Overig", "Activiteiten Thuis"], "types": [], "topic": "event", "location": "", "provider": "", "start_date": "", "end_date": "2026-12-31 22:59", "start_ts": 0, "end_ts": 1798757940, "last_updated": "2026-07-06T10:55:42.718Z", "highlight_event": false, "show_on_website": true, "show_on_app": true, "retail_id": "", "image_url": "", "mobile_image_url": "", "locations": [], "lat": null, "lng": null, "address": "", "is_winactie": false}, {"id": "994338ef-9e78-48a8-bf00-5efaa25d50d2", "url": "https://www.vriendenloterij.nl/vipkaart/aanbod/vi-abonnement", "name": "Voetbal International abonnement", "description": "Fysiek of een digitaal VI PRO-abonnement. Onbeperkt toegang tot VI PRO-artikelen. Exclusieve interviews met spelers en trainers en meer.", "label": "tot 77% korting", "offers": ["Korting"], "offer_enums": ["DISCOUNT"], "categories": ["Sport en Bewegen", "Activiteiten Thuis"], "types": ["Binnen"], "topic": "event", "location": "", "provider": "", "start_date": "2026-01-01 07:00", "end_date": "2026-12-31 22:59", "start_ts": 1767250800, "end_ts": 1798757940, "last_updated": "2026-07-06T10:50:04.462Z", "highlight_event": false, "show_on_website": true, "show_on_app": true, "retail_id": "", "image_url": "", "mobile_image_url": "", "locations": [], "lat": null, "lng": null, "address": "", "is_winactie": false}, {"id": "6a852f92-eff4-47f7-94f4-ef08a5ed6fa4", "url": "https://www.vriendenloterij.nl/vipkaart/aanbod/musical-willem-van-oranje", "name": "Willem van Oranje – De Musical", "description": "Hét meeslepende verhaal van Willem van Oranje. Ontdek deze musical in het gloednieuwe Prinsentheater in Delft.", "label": "25% voordeel", "offers": ["Korting"], "offer_enums": ["DISCOUNT"], "categories": ["Theater, Musicals en Concerten"], "types": ["Binnen", "Historisch", "Musical"], "topic": "event", "location": "Delft", "provider": "Prinsentheater", "start_date": "2026-05-01 00:02", "end_date": "2027-01-03 22:59", "start_ts": 1777593720, "end_ts": 1799017140, "last_updated": "2026-07-06T10:45:59.903Z", "highlight_event": false, "show_on_website": true, "show_on_app": true, "retail_id": "", "image_url": "", "mobile_image_url": "", "locations": [{"name": "Prinsentheater", "city": "Delft", "province": "Zuid-Holland", "address": "Heertjeslaan 16 2629 JG Delft", "lat": 51.987953, "lng": 4.383729, "website": ""}], "lat": 51.987953, "lng": 4.383729, "address": "Heertjeslaan 16 2629 JG Delft", "is_winactie": false}, {"id": "869c2014-8b00-4dda-a263-d7149965b28e", "url": "https://www.vriendenloterij.nl/vipkaart/aanbod/holiday-on-ice", "name": "Holiday on Ice - Cinema of Dreams", "description": "De nieuwste show van Holiday on Ice. Een geweldige megablockbuster op het ijs. Met de beste kunstschaatsers ter wereld.", "label": "30% korting", "offers": ["Korting"], "offer_enums": ["DISCOUNT"], "categories": ["Festivals en Evenementen", "Theater, Musicals en Concerten"], "types": ["Gezin", "Binnen"], "topic": "event", "location": "Breda", "provider": "Breepark", "start_date": "2026-12-10 09:00", "end_date": "2027-01-17 22:59", "start_ts": 1796893200, "end_ts": 1800226740, "last_updated": "2026-07-06T10:50:03.846Z", "highlight_event": false, "show_on_website": true, "show_on_app": true, "retail_id": "", "image_url": "", "mobile_image_url": "", "locations": [{"name": "", "city": "", "province": "", "address": "", "lat": null, "lng": null}, {"name": "Breepark", "city": "Breda", "province": "Noord-Brabant", "address": "Bavelseparklaan 1 4817 ZX Breda", "lat": 51.580756, "lng": 4.82893, "website": "https://breepark.nl/"}, {"name": "Brabanthallen 's-Hertogenbosch", "city": "Den Bosch", "province": "Noord-Brabant", "address": "Diezekade 1 5222 AK Den Bosch", "lat": 51.703642, "lng": 5.287225, "website": "https://www.brabanthallen.nl/"}, {"name": "RAI Amsterdam", "city": "Amsterdam", "province": "Noord-Holland", "address": "Europaplein 24 1078 GZ Amsterdam", "lat": 52.342888, "lng": 4.888803, "website": "https://www.rai.nl/"}, {"name": "", "city": "", "province": "", "address": "", "lat": null, "lng": null}, {"name": "MECC Maastricht", "city": "Maastricht", "province": "Limburg", "address": "Forum 100 6229 GV Maastricht", "lat": 50.837763, "lng": 5.713152, "website": "https://www.mecc.nl/"}], "lat": 51.580756, "lng": 4.82893, "address": "Bavelseparklaan 1 4817 ZX Breda", "is_winactie": false}, {"id": "9cf0a122-6809-4a0c-a8e0-5c49fe5d415b", "url": "https://www.vriendenloterij.nl/vipkaart/aanbod/master-of-film-music-ennio-morricone", "name": "Master of Film Music Ennio Morricone", "description": "Na eerder overweldigende succes keert dit concert in 2027 weer terug! Ervaar de legendarische klanken van Ennio Morricone. Bekend van de soundtrack van o.a. *The Good, the Bad and the Ugly*.", "label": "25% korting", "offers": ["Korting"], "offer_enums": ["DISCOUNT"], "categories": ["Theater, Musicals en Concerten"], "types": ["Concerten", "Binnen"], "topic": "event", "location": "Amsterdam", "provider": "Het Concertgebouw", "start_date": "2027-01-05 09:00", "end_date": "2027-01-17 22:59", "start_ts": 1799139600, "end_ts": 1800226740, "last_updated": "2026-07-06T06:55:46.853Z", "highlight_event": false, "show_on_website": true, "show_on_app": true, "retail_id": "", "image_url": "", "mobile_image_url": "", "locations": [{"name": "Het Concertgebouw", "city": "Amsterdam", "province": "Noord-Holland", "address": "Concertgebouwplein 10 1071 LN Amsterdam", "lat": 52.355894, "lng": 4.878337, "website": "https://www.concertgebouw.nl/"}, {"name": "World Forum Den Haag", "city": "Den Haag", "province": "Zuid-Holland", "address": "Churchillplein 10 2517 JW Den Haag", "lat": 52.092551, "lng": 4.282777, "website": "https://www.worldforum.nl/"}, {"name": "Musis", "city": "Arnhem", "province": "Gelderland", "address": "Velperbinnensingel 15 6811 BP Arnhem", "lat": 51.982703, "lng": 5.913631, "website": "https://www.musisenstadstheater.nl/?gad_source=1&gclid=Cj0KCQiA2KitBhCIARIsAPPMEhJY-Lu3vtxDX5KsoPxdm_Kqppt_HY5mbVX436ZDRQQ-d2VRhVhmiXkaAjqGEALw_wcB"}, {"name": "Muziekgebouw Eindhoven", "city": "Eindhoven", "province": "Noord-Brabant", "address": "Heuvel 140 5611 DK Eindhoven", "lat": 51.438988, "lng": 5.479632, "website": "https://www.muziekgebouweindhoven.nl/nl/"}, {"name": "Martiniplaza", "city": "Groningen", "province": "Groningen", "address": "Leonard Springerlaan 2 9727 KB Groningen", "lat": 53.202902, "lng": 6.555183, "website": "https://www.martiniplaza.nl/"}, {"name": "De Doelen", "city": "Rotterdam", "province": "Zuid-Holland", "address": "Schouwburgplein 50 3012 CL Rotterdam", "lat": 51.908749, "lng": 4.458083, "website": "https://www.dedoelen.nl/"}], "lat": 52.355894, "lng": 4.878337, "address": "Concertgebouwplein 10 1071 LN Amsterdam", "is_winactie": false}, {"id": "a5c30838-4305-4a63-b8fc-19834f778c43", "url": "https://www.vriendenloterij.nl/vipkaart/aanbod/speelparkmaand", "name": "Speelparkmaand", "description": "De leukste indoor speelparken. Betaal 1 toegangskaart en ontvang er 2 cadeau. Bestellen is mogelijk t/m 31 januari 2026. Ticket zijn geldig t/m 31 maart 2026.", "label": "1 + 2 cadeau", "offers": ["Exclusief"], "offer_enums": ["EXCLUSIVE"], "categories": ["Pretparken en Speelparken"], "types": ["Gezin", "Binnen"], "topic": "event", "location": "", "provider": "", "start_date": "2027-01-01 01:00", "end_date": "2027-01-31 22:59", "start_ts": 1798765200, "end_ts": 1801436340, "last_updated": "2026-07-06T10:50:19.672Z", "highlight_event": false, "show_on_website": true, "show_on_app": false, "retail_id": "", "image_url": "", "mobile_image_url": "", "locations": [], "lat": null, "lng": null, "address": "", "is_winactie": false}, {"id": "fa6b9f64-e24f-40af-8b8c-8793b7bb4b9b", "url": "https://www.vriendenloterij.nl/vipkaart/aanbod/iffr", "name": "International Film Festival Rotterdam", "description": "Ontdek IFFR. Een verrassend programma vol met de beste films van dit moment. Voor dit aanbod is een beperkt aantal kaarten beschikbaar, dus OP=OP.", "label": "Slechts € 2,-", "offers": ["Korting"], "offer_enums": ["DISCOUNT"], "categories": ["Bioscopen en Films", "Festivals en Evenementen"], "types": ["Binnen"], "topic": "event", "location": "Rotterdam", "provider": "International Film Festival Rotterdam", "start_date": "2027-01-29 09:00", "end_date": "2027-02-07 22:59", "start_ts": 1801213200, "end_ts": 1802041140, "last_updated": "2026-07-06T10:49:44.354Z", "highlight_event": false, "show_on_website": true, "show_on_app": false, "retail_id": "", "image_url": "", "mobile_image_url": "", "locations": [{"name": "International Film Festival Rotterdam", "city": "Rotterdam", "province": "Zuid-Holland", "address": "Karel Doormanstraat 278-B 3012 GP Rotterdam", "lat": 51.921929, "lng": 4.474188, "website": "https://iffr.com/nl/"}], "lat": 51.921929, "lng": 4.474188, "address": "Karel Doormanstraat 278-B 3012 GP Rotterdam", "is_winactie": false}, {"id": "80d0463e-b0d3-47fe-a70d-fe323fc669ed", "url": "https://www.vriendenloterij.nl/vipkaart/aanbod/the-music-of-simon-garfunkel", "name": "The Music of Simon & Garfunkel", "description": "Beleef de tijdloze muziek van het  legendarische duo Paul Simon en Art Garfunkel. Door The Simon & Garfunkel Revival Band. Exclusief te zien in Het Concertgebouw.", "label": "25% korting", "offers": ["Korting"], "offer_enums": ["DISCOUNT"], "categories": ["Theater, Musicals en Concerten"], "types": ["Concerten", "Binnen"], "topic": "event", "location": "Amsterdam", "provider": "Het Concertgebouw", "start_date": "2027-02-17 09:00", "end_date": "2027-02-17 22:59", "start_ts": 1802854800, "end_ts": 1802905140, "last_updated": "2026-07-06T10:48:48.550Z", "highlight_event": false, "show_on_website": true, "show_on_app": true, "retail_id": "", "image_url": "", "mobile_image_url": "", "locations": [{"name": "Het Concertgebouw", "city": "Amsterdam", "province": "Noord-Holland", "address": "Concertgebouwplein 10 1071 LN Amsterdam", "lat": 52.355894, "lng": 4.878337, "website": "https://www.concertgebouw.nl/"}], "lat": 52.355894, "lng": 4.878337, "address": "Concertgebouwplein 10 1071 LN Amsterdam", "is_winactie": false}, {"id": "3be7590b-db5f-44fa-9278-db32102631a7", "url": "https://www.vriendenloterij.nl/vipkaart/aanbod/eine-kleine-nachtmusik-mozart", "name": "Eine Kleine Nachtmusik – W.A. Mozart", "description": "Beleef Mozarts beroemde compositie. Met sopraan Olga Zinovieva en vioolvirtuoos Enrique Gómez. Stralend en toegankelijk.", "label": "50% korting", "offers": ["Korting"], "offer_enums": ["DISCOUNT"], "categories": ["Theater, Musicals en Concerten"], "types": ["Binnen", "Concerten"], "topic": "event", "location": "Leusden", "provider": "AFAS Theater", "start_date": "", "end_date": "2027-02-20 22:59", "start_ts": 0, "end_ts": 1803164340, "last_updated": "2026-07-06T10:56:54.460Z", "highlight_event": false, "show_on_website": true, "show_on_app": true, "retail_id": "", "image_url": "", "mobile_image_url": "", "locations": [{"name": "AFAS Theater", "city": "Leusden", "province": "Utrecht", "address": "Inspiratielaan 3 3833 AV Leusden", "lat": 52.141926, "lng": 5.421114, "website": ""}], "lat": 52.141926, "lng": 5.421114, "address": "Inspiratielaan 3 3833 AV Leusden", "is_winactie": false}, {"id": "99ba427a-26f4-42bc-b36d-0994b02687f3", "url": "https://www.vriendenloterij.nl/vipkaart/aanbod/laat-me-hommage-aan-ramses-shaffy-liesbeth-list", "name": "LAAT ME - Hommage aan Ramses Shaffy & Liesbeth List", "description": "Eerbetoon aan de beroemde Nederlandse artiesten. Beluister bekende nummers zoals *Laat me* en *Pastorale*. Met live orkest inclusief strijkersensemble.", "label": "25% korting", "offers": ["Korting"], "offer_enums": ["DISCOUNT"], "categories": ["Theater, Musicals en Concerten"], "types": ["Concerten", "Binnen"], "topic": "event", "location": "Groningen", "provider": "Martiniplaza", "start_date": "2027-02-03 09:00", "end_date": "2027-02-23 22:59", "start_ts": 1801645200, "end_ts": 1803423540, "last_updated": "2026-07-06T10:48:56.963Z", "highlight_event": false, "show_on_website": true, "show_on_app": true, "retail_id": "", "image_url": "", "mobile_image_url": "", "locations": [{"name": "Martiniplaza", "city": "Groningen", "province": "Groningen", "address": "Leonard Springerlaan 2 9727 KB Groningen", "lat": 53.202902, "lng": 6.555183, "website": "https://www.martiniplaza.nl/"}, {"name": "Muziekgebouw Eindhoven", "city": "Eindhoven", "province": "Noord-Brabant", "address": "Heuvel 140 5611 DK Eindhoven", "lat": 51.438988, "lng": 5.479632, "website": "https://www.muziekgebouweindhoven.nl/nl/"}, {"name": "Het Concertgebouw", "city": "Amsterdam", "province": "Noord-Holland", "address": "Concertgebouwplein 10 1071 LN Amsterdam", "lat": 52.355894, "lng": 4.878337, "website": "https://www.concertgebouw.nl/"}, {"name": "World Forum Den Haag", "city": "Den Haag", "province": "Zuid-Holland", "address": "Churchillplein 10 2517 JW Den Haag", "lat": 52.092551, "lng": 4.282777, "website": "https://www.worldforum.nl/"}, {"name": "Musis", "city": "Arnhem", "province": "Gelderland", "address": "Velperbinnensingel 15 6811 BP Arnhem", "lat": 51.982703, "lng": 5.913631, "website": "https://www.musisenstadstheater.nl/?gad_source=1&gclid=Cj0KCQiA2KitBhCIARIsAPPMEhJY-Lu3vtxDX5KsoPxdm_Kqppt_HY5mbVX436ZDRQQ-d2VRhVhmiXkaAjqGEALw_wcB"}], "lat": 53.202902, "lng": 6.555183, "address": "Leonard Springerlaan 2 9727 KB Groningen", "is_winactie": false}, {"id": "7cf85bb2-1a8a-4c9c-ba65-a3f12b0dcdf2", "url": "https://www.vriendenloterij.nl/vipkaart/aanbod/matthaus-passion-j-s-bach", "name": "Matthäus Passion - J.S. Bach", "description": "Eeuwenoud maar nog steeds actueel. Favoriet in Nederland. Bestel alvast voor 2027.", "label": "50% korting", "offers": ["Korting"], "offer_enums": ["DISCOUNT"], "categories": ["Theater, Musicals en Concerten"], "types": ["Binnen", "Concerten"], "topic": "event", "location": "Leiden", "provider": "Hooglandse Kerk Leiden", "start_date": "2027-02-27 13:11", "end_date": "2027-03-27 22:59", "start_ts": 1803733860, "end_ts": 1806188340, "last_updated": "2026-07-06T11:02:05.269Z", "highlight_event": false, "show_on_website": true, "show_on_app": true, "retail_id": "", "image_url": "", "mobile_image_url": "", "locations": [{"name": "Hooglandse Kerk Leiden", "city": "Leiden", "province": "Zuid-Holland", "address": "Nieuwstraat 20 2312 KC Leiden", "lat": 52.157829, "lng": 4.493694, "website": "https://hooglandsekerk.com/"}, {"name": "Het Concertgebouw", "city": "Amsterdam", "province": "Noord-Holland", "address": "Concertgebouwplein 10 1071 LN Amsterdam", "lat": 52.355894, "lng": 4.878337, "website": "https://www.concertgebouw.nl/"}, {"name": "AFAS Theater", "city": "Leusden", "province": "Utrecht", "address": "Inspiratielaan 3 3833 AV Leusden", "lat": 52.141926, "lng": 5.421114, "website": ""}, {"name": "Jacobikerk Utrecht", "city": "Utrecht", "province": "Utrecht", "address": "St Jacobsstraat 171 3511 BP Utrecht", "lat": 52.094965, "lng": 5.115183, "website": "https://www.jacobikerk.nl/"}, {"name": "Academiehuis Grote Kerk", "city": "Zwolle", "province": "Overijssel", "address": "Grote Markt 18 8011 LW Zwolle", "lat": 52.512019, "lng": 6.092083, "website": "https://www.academiehuis.nl/bezoek"}, {"name": "Laurenskerk", "city": "Rotterdam", "province": "Zuid-Holland", "address": "Grotekerkplein 27 3011 GC Rotterdam", "lat": 51.921452, "lng": 4.484906, "website": "https://laurenskerkrotterdam.nl/"}, {"name": "Martinikerk Groningen", "city": "Groningen", "province": "Groningen", "address": "Martinikerkhof 3 9712 JG Groningen", "lat": 53.219269, "lng": 6.568568, "website": "https://www.visitgroningen.nl/nl/locaties/1801126452/martinikerk-groningen"}, {"name": "Grote Kerk Elburg", "city": "Elburg", "province": "Gelderland", "address": "Zuiderkerkstraat 1 8081 CJ Elburg", "lat": 52.448484, "lng": 5.836423, "website": "https://www.hervormdelburg.nl/grote-kerk-elburg/"}, {"name": "Grote Kerk Den Haag", "city": "Den Haag", "province": "Zuid-Holland", "address": "Rond de Grote Kerk 12 2513 AM Den Haag", "lat": 52.077171, "lng": 4.306759, "website": "https://www.grote-kerk.nl/"}, {"name": "Catherinakerk", "city": "Eindhoven", "province": "Noord-Holland", "address": "Catharinaplein 1 5611 DE Eindhoven", "lat": 51.440812, "lng": 5.480646, "website": "https://www.thisiseindhoven.com/nl/locaties/catharinakerk"}, {"name": "Jheronimus Bosch Art Center", "city": "Den Bosch", "province": "Noord-Brabant", "address": "Jeroen Boschplein 2 5211 ML Den Bosch", "lat": 51.688092, "lng": 5.312163, "website": "https://jheronimusbosch-artcenter.nl/"}], "lat": 52.157829, "lng": 4.493694, "address": "Nieuwstraat 20 2312 KC Leiden", "is_winactie": false}, {"id": "6ed06b65-a709-493a-b074-51baf6657af1", "url": "https://www.vriendenloterij.nl/vipkaart/aanbod/stabat-mater", "name": "Stabat Mater Concert", "description": "Ontroerend en indrukwekkend. Drie prachtige versies van Pergolesi, Vivaldi en Boccherini. Bestel alvast voor 2027.", "label": "50% korting", "offers": ["Korting"], "offer_enums": ["DISCOUNT"], "categories": ["Theater, Musicals en Concerten"], "types": ["Binnen", "Concerten", "Rustig"], "topic": "event", "location": "Leusden", "provider": "AFAS Theater", "start_date": "2027-02-20 13:11", "end_date": "2027-03-27 22:59", "start_ts": 1803129060, "end_ts": 1806188340, "last_updated": "2026-07-06T10:57:21.246Z", "highlight_event": false, "show_on_website": true, "show_on_app": true, "retail_id": "", "image_url": "", "mobile_image_url": "", "locations": [{"name": "AFAS Theater", "city": "Leusden", "province": "Utrecht", "address": "Inspiratielaan 3 3833 AV Leusden", "lat": 52.141926, "lng": 5.421114, "website": ""}, {"name": "Hooglandse Kerk Leiden", "city": "Leiden", "province": "Zuid-Holland", "address": "Nieuwstraat 20 2312 KC Leiden", "lat": 52.157829, "lng": 4.493694, "website": "https://hooglandsekerk.com/"}, {"name": "Catherinakerk", "city": "Eindhoven", "province": "Noord-Holland", "address": "Catharinaplein 1 5611 DE Eindhoven", "lat": 51.440812, "lng": 5.480646, "website": "https://www.thisiseindhoven.com/nl/locaties/catharinakerk"}, {"name": "Jacobikerk Utrecht", "city": "Utrecht", "province": "Utrecht", "address": "St Jacobsstraat 171 3511 BP Utrecht", "lat": 52.094965, "lng": 5.115183, "website": "https://www.jacobikerk.nl/"}, {"name": "Jheronimus Bosch Art Center", "city": "Den Bosch", "province": "Noord-Brabant", "address": "Jeroen Boschplein 2 5211 ML Den Bosch", "lat": 51.688092, "lng": 5.312163, "website": "https://jheronimusbosch-artcenter.nl/"}, {"name": "Het Concertgebouw", "city": "Amsterdam", "province": "Noord-Holland", "address": "Concertgebouwplein 10 1071 LN Amsterdam", "lat": 52.355894, "lng": 4.878337, "website": "https://www.concertgebouw.nl/"}, {"name": "Martinikerk Groningen", "city": "Groningen", "province": "Groningen", "address": "Martinikerkhof 3 9712 JG Groningen", "lat": 53.219269, "lng": 6.568568, "website": "https://www.visitgroningen.nl/nl/locaties/1801126452/martinikerk-groningen"}], "lat": 52.141926, "lng": 5.421114, "address": "Inspiratielaan 3 3833 AV Leusden", "is_winactie": false}, {"id": "ec5fa891-8d0c-4f52-8099-cf7739b7af0b", "url": "https://www.vriendenloterij.nl/vipkaart/aanbod/titanique-de-musical", "name": "Titanique de musical", "description": "Hilarische over de top musical. Internationale hitsensatie vol humor, megahits én plottwists. Voor dit aanbod is een beperkt aantal kaarten beschikbaar, dus OP=OP.", "label": "50% voordeel", "offers": ["Korting"], "offer_enums": ["DISCOUNT"], "categories": ["Theater, Musicals en Concerten"], "types": ["Musical", "Binnen"], "topic": "event", "location": "Breda", "provider": "Chassé Theater Breda", "start_date": "2026-09-17 08:00", "end_date": "2027-04-17 22:00", "start_ts": 1789632000, "end_ts": 1807999200, "last_updated": "2026-07-06T11:14:29.822Z", "highlight_event": false, "show_on_website": true, "show_on_app": true, "retail_id": "", "image_url": "", "mobile_image_url": "", "locations": [{"name": "Chassé Theater Breda", "city": "Breda", "province": "Noord-Brabant", "address": "Claudius Prinsenlaan 8 4811 DK Breda", "lat": 51.587473, "lng": 4.782181, "website": "https://www.chasse.nl/"}, {"name": "Isala Theater", "city": "Capelle aan den IJssel", "province": "Zuid-Holland", "address": "Stadsplein 5 2903 HH Capelle aan den IJssel", "lat": 51.931533, "lng": 4.588143, "website": "https://www.isalatheater.nl/"}, {"name": "Kennemer Theater Beverwijk", "city": "Beverwijk", "province": "Noord-Holland", "address": "Kerkpklein 1 1941 HD Beverwijk", "lat": 52.486646, "lng": 4.658469, "website": "https://www.kennemertheater.nl/"}, {"name": "Parktheater", "city": "Eindhoven", "province": "Noord-Brabant", "address": "Elzentlaan 50 5615 CN Eindhoven", "lat": 51.429143, "lng": 5.484412, "website": "https://www.parktheater.nl/nl/"}, {"name": "Schouwburg en Congrescentrum Het Park", "city": "Hoorn", "province": "Noord-Holland", "address": "Westerdijk 4 1621 LE Hoorn", "lat": 52.641681, "lng": 5.051046, "website": "https://www.hetpark.nl/"}, {"name": "Theater & Concert Orpheus", "city": "Apeldoorn", "province": "Gelderland", "address": "Churchillplein 1 7314 BZ Apeldoorn", "lat": 52.219603, "lng": 5.953028, "website": "https://www.orpheus.nl/voorstellingen"}, {"name": "Stadstheater Zoetermeer", "city": "Zoetermeer", "province": "Zuid-Holland", "address": "Theaterplein 10 2711 EK Zoetermeer", "lat": 52.062271, "lng": 4.493851, "website": "https://stadstheater.nl/"}, {"name": "Deventer Schouwburg", "city": "Deventer", "province": "Gelderland", "address": "Leeuwenbrug 2 7411 TJ Deventer", "lat": 52.255647, "lng": 6.161557, "website": "https://deventerschouwburg.nl/?gad_source=1&gclid=Cj0KCQiAtaOtBhCwARIsAN_x-3Jih8q-Guqre5TrTqgeaTu0TgftDJEB-1nXpST1pr09UF_E2vqCXLYaAt_CEALw_wcB"}, {"name": "Theater de Stoep", "city": "Spijkenisse", "province": "Zuid-Holland", "address": "Theaterplein 1 3201 DH Spijkenisse", "lat": 51.851494, "lng": 4.330643, "website": "https://theaterdestoep.nl/"}, {"name": "Schouwburg De Lawei", "city": "Drachten", "province": "Friesland", "address": "Laweiplein 1 9203 KL Drachten", "lat": 53.103004, "lng": 6.098552, "website": "https://www.lawei.nl/"}, {"name": "Theater De Leest", "city": "Waalwijk", "province": "Noord-Brabant", "address": "Vredesplein 12 5142 RA Waalwijk", "lat": 51.687257, "lng": 5.070457, "website": "https://www.deleest.nl/?gclid=Cj0KCQiAwbitBhDIARIsABfFYIIf3Mgp8V4yMylh6jl-kRm41Iuk0UIkoHssR69lq0oVsAqv6zW4KEYaAmXNEALw_wcB"}, {"name": "Stadsschouwburg De Harmonie", "city": "Leeuwarden", "province": "Friesland", "address": "Ruiterskwartier 4 8911 BP Leeuwarden", "lat": 53.200129, "lng": 5.790079, "website": "https://harmonie.nl/"}, {"name": "Markant Theater Maashorst", "city": "Uden", "province": "Noord-Brabant", "address": "Markt 32 5401 GP Uden", "lat": 51.657158, "lng": 5.617423, "website": "https://www.markantmaashorst.nl/"}, {"name": "Martiniplaza", "city": "Groningen", "province": "Groningen", "address": "Leonard Springerlaan 2 9727 KB Groningen", "lat": 53.202902, "lng": 6.555183, "website": "https://www.martiniplaza.nl/"}, {"name": "Theater aan het Vrijthof", "city": "Maastricht", "province": "Limburg", "address": "Vrijthof 47 6211 LE Maastricht", "lat": 50.849277, "lng": 5.689335, "website": "https://www.theateraanhetvrijthof.nl/"}, {"name": "Flint Theater", "city": "Amersfoort", "province": "Utrecht", "address": "Coninckstraat 60 3811 WK Amersfoort", "lat": 52.159537, "lng": 5.392673, "website": "https://flint.nl/?gad_source=1&gclid=Cj0KCQiA2KitBhCIARIsAPPMEhK4d8gdcA3gM4xwTZP8SVbFJncm57YGNzLU-pegO4klyVHeJjd5X3AaAlzfEALw_wcB"}, {"name": "Kunstlinie Almere", "city": "Almere", "province": "Flevoland", "address": "Esplanade 10 1315 TA Almere", "lat": 52.367017, "lng": 5.219, "website": "https://kunstlinie.nl/"}, {"name": "Theater aan de Parade", "city": "Den Bosch", "province": "Noord-Brabant", "address": "Parade 23 5211 KL Den Bosch", "lat": 51.686856, "lng": 5.308666, "website": "https://www.theateraandeparade.nl/"}, {"name": "Theater De Kampanje", "city": "Den Helder", "province": "Noord-Holland", "address": "Willemsoord 63 1781 AS Den Helder", "lat": 52.958598, "lng": 4.769081, "website": "https://www.kampanje.nl/?gclid=Cj0KCQiAnrOtBhDIARIsAFsSe528XHL4rlQ6YggG1gAzttGn-MG4mYj1Fa8TXenUp_y97FNxO0vlI-oaAsg1EALw_wcB"}, {"name": "Theater Castellum", "city": "Alphen aan den Rijn", "province": "Zuid-Holland", "address": "Rijnplein 1-3 2405 DB Alphen aan den Rijn", "lat": 52.129433, "lng": 4.662149, "website": "https://castellum.nl/"}, {"name": "Wilminktheater en Muziekcentrum Enschede", "city": "Enschede", "province": "Overijssel", "address": "Wenninkgaarde 40-42 7511 PH Enschede", "lat": 52.222531, "lng": 6.897017, "website": "https://www.wilminktheater.nl/"}, {"name": "De Kring", "city": "Roosendaal", "province": "Noord-Brabant", "address": "Kerkplein 1 4701 HT Roosendaal", "lat": 51.533236, "lng": 4.458324, "website": "https://www.dekringroosendaal.nl/pQmjhl/je-bezoek/algemene-informatie"}, {"name": "Theater aan de Schie", "city": "Schiedam", "province": "Zuid-Holland", "address": "Stadserf 1 3112 DZ Schiedam", "lat": 51.91809, "lng": 4.403624, "website": "https://theateraandeschie.nl/"}, {"name": "Theater Heerlen", "city": "Heerlen", "province": "Limburg", "address": "Burg. van Grunsvenplein 145 6411 AS Heerlen", "lat": 50.886722, "lng": 5.97297, "website": "http://www.plt.nl/"}, {"name": "Stadsschouwburg Haarlem", "city": "Haarlem", "province": "Noord-Holland", "address": "Wilsonsplein 23 2011 VG Haarlem", "lat": 52.377898, "lng": 4.625847, "website": "https://www.stadsschouwburghaarlem.nl/"}, {"name": "Maaspoort theater Venlo", "city": "Venlo", "province": "Limburg", "address": "Oude Markt 30 5911 HH Venlo", "lat": 51.370376, "lng": 6.16789, "website": "https://www.maaspoort.nl/"}, {"name": "Oude Luxor Theater", "city": "Rotterdam", "province": "Zuid-Holland", "address": "Kruiskade 10 3012 EH Rotterdam", "lat": 51.922998, "lng": 4.477027, "website": "https://www.luxortheater.nl/"}, {"name": "Scheldetheater", "city": "Terneuzen", "province": "Zeeland", "address": "Westkolkstraat 16 4531 AW Terneuzen", "lat": 51.338785, "lng": 3.822954, "website": ""}, {"name": "Schouwburg Amphion", "city": "Doetinchem", "province": "Gelderland", "address": "Hofstraat 159 7001 JD Doetinchem", "lat": 51.968429, "lng": 6.28786, "website": "https://www.amphion.nl/?gclid=Cj0KCQiA2KitBhCIARIsAPPMEhJSvuKBC45Bgqz4JGYv8P3UxFYx1SorivRhTHu5wb7HgRO5n0vVBcQaAk_9EALw_wcB"}, {"name": "De Rijswijkse Schouwburg", "city": "Rijswijk", "province": "Zuid-Holland", "address": "Generaal Spoorlaan 10 2283 GM Rijswijk", "lat": 52.046971, "lng": 4.327992, "website": "https://www.rijswijkseschouwburg.nl/"}, {"name": "De Nieuwe Kolk", "city": "Assen", "province": "Drenthe", "address": "Weierstraat 1 9401 ET Assen", "lat": 52.994604, "lng": 6.558627, "website": "https://www.dnk.nl/"}, {"name": "Schouwburg Agnietenhof", "city": "Tiel", "province": "Gelderland", "address": "Sint Agnietenstraat 2 4001 NB Tiel", "lat": 51.885733, "lng": 5.436254, "website": "https://www.agnietenhof.nl/"}, {"name": "Schouwburg Cuijk", "city": "Cuijk", "province": "Noord-Brabant", "address": "Grotestraat 62 5431 DL Cuijk", "lat": 51.728418, "lng": 5.881839, "website": ""}], "lat": 51.587473, "lng": 4.782181, "address": "Claudius Prinsenlaan 8 4811 DK Breda", "is_winactie": false}, {"id": "eb2782c4-e362-45c0-aa95-9a386f90155f", "url": "https://www.vriendenloterij.nl/vipkaart/aanbod/familiemaand", "name": "Familiemaand", "description": "Ontdek samen de leukste uitjes. Betaal 1 toegangskaart en ontvang er 2 cadeau. Geldig in april 2027.", "label": "1 + 2 cadeau", "offers": ["Exclusief"], "offer_enums": ["EXCLUSIVE"], "categories": ["Pretparken en Speelparken"], "types": ["Binnen", "Buiten", "Gezin"], "topic": "event", "location": "", "provider": "", "start_date": "2027-04-01 00:00", "end_date": "2027-04-30 21:59", "start_ts": 1806537600, "end_ts": 1809122340, "last_updated": "2026-07-06T11:02:25.077Z", "highlight_event": false, "show_on_website": true, "show_on_app": false, "retail_id": "", "image_url": "", "mobile_image_url": "", "locations": [], "lat": null, "lng": null, "address": "", "is_winactie": false},